timestamp,timestamp_sample,q[0],q[1],q[2],q[3],delta_q_reset[0],delta_q_reset[1],delta_q_reset[2],delta_q_reset[3],quat_reset_counter
14361720,14361363,0.99917215,0.008101878,-0.0056769806,0.03946191,0.99955577,-3.1554072e-11,2.7337843e-10,0.029806457,1
14365708,14365372,0.9991632,0.0081724115,-0.005737755,0.03966489,0.99955577,-3.1554072e-11,2.7337843e-10,0.029806457,1
14413370,14413083,0.99986863,0.007932685,-0.006627959,-0.01248279,0.9986445,8.3789947e-10,-4.9280435e-10,-0.05205085,2
14461358,14461067,0.9998525,0.0076446524,-0.0069849724,-0.013701264,0.9986445,8.3789947e-10,-4.9280435e-10,-0.05205085,2
14513248,14512961,0.9998523,0.007638408,-0.007004119,-0.013709762,0.9986445,8.3789947e-10,-4.9280435e-10,-0.05205085,2
14565013,14564716,0.9998468,0.0074161454,-0.00698495,-0.014231081,0.9986445,8.3789947e-10,-4.9280435e-10,-0.05205085,2
14612977,14612689,0.9998344,0.007840912,-0.007990086,-0.0143511705,0.9986445,8.3789947e-10,-4.9280435e-10,-0.05205085,2
14660728,14660430,0.9998235,0.008014737,-0.0076178745,-0.015192096,0.9986445,8.3789947e-10,-4.9280435e-10,-0.05205085,2
14712760,14712466,0.9998129,0.0077563506,-0.008488581,-0.015556867,0.9986445,8.3789947e-10,-4.9280435e-10,-0.05205085,2
14765581,14765290,0.9998054,0.007916065,-0.008840038,-0.015762549,0.9986445,8.3789947e-10,-4.9280435e-10,-0.05205085,2
14813360,14813074,0.99980724,0.0067434073,-0.009135046,-0.016015023,0.9986445,8.3789947e-10,-4.9280435e-10,-0.05205085,2
14861324,14861039,0.9998227,0.0070532644,-0.007937231,-0.015553832,0.9986445,8.3789947e-10,-4.9280435e-10,-0.05205085,2
14912877,14912585,0.99982125,0.007928983,-0.0079002995,-0.015245574,0.9986445,8.3789947e-10,-4.9280435e-10,-0.05205085,2
14965474,14965177,0.9998269,0.0078705,-0.008102579,-0.014783415,0.9986445,8.3789947e-10,-4.9280435e-10,-0.05205085,2
15013347,15013064,0.9998544,0.0073774047,-0.008101008,-0.013086802,0.9986445,8.3789947e-10,-4.9280435e-10,-0.05205085,2
15061170,15060879,0.9998821,0.007315096,-0.007650623,-0.011127927,0.9986445,8.3789947e-10,-4.9280435e-10,-0.05205085,2
15112958,15112671,0.999887,0.0077420454,-0.008072771,-0.010044086,0.9986445,8.3789947e-10,-4.9280435e-10,-0.05205085,2
15165030,15164728,0.99987745,0.008611897,-0.008753654,-0.009710822,0.9986445,8.3789947e-10,-4.9280435e-10,-0.05205085,2
15213457,15213166,0.99988276,0.008786772,-0.008748203,-0.008987365,0.9986445,8.3789947e-10,-4.9280435e-10,-0.05205085,2
15264915,15264623,0.99986494,0.009256108,-0.009999261,-0.009200648,0.9986445,8.3789947e-10,-4.9280435e-10,-0.05205085,2
15312946,15312656,0.9998695,0.008685618,-0.010196314,-0.009032425,0.9986445,8.3789947e-10,-4.9280435e-10,-0.05205085,2
15360849,15360551,0.9998722,0.008361189,-0.010511329,-0.008672291,0.9986445,8.3789947e-10,-4.9280435e-10,-0.05205085,2
15413547,15413254,0.9998659,0.00846727,-0.010410783,-0.009388528,0.9986445,8.3789947e-10,-4.9280435e-10,-0.05205085,2
15465506,15465210,0.99987227,0.007981019,-0.009816982,-0.009768056,0.9986445,8.3789947e-10,-4.9280435e-10,-0.05205085,2
15513288,15513001,0.99988097,0.007792621,-0.00938381,-0.009449513,0.9986445,8.3789947e-10,-4.9280435e-10,-0.05205085,2
15560821,15560402,0.9998786,0.008008262,-0.01012748,-0.0087334495,0.9986445,8.3789947e-10,-4.9280435e-10,-0.05205085,2
15613284,15612888,0.99988,0.0079124775,-0.009815237,-0.009006091,0.9986445,8.3789947e-10,-4.9280435e-10,-0.05205085,2
15665098,15664814,0.9998845,0.007478521,-0.009806167,-0.008884879,0.9986445,8.3789947e-10,-4.9280435e-10,-0.05205085,2
15712968,15712674,0.99988264,0.006892973,-0.010023705,-0.009316287,0.9986445,8.3789947e-10,-4.9280435e-10,-0.05205085,2
15764808,15764512,0.9998697,0.007380352,-0.010865698,-0.009382138,0.9986445,8.3789947e-10,-4.9280435e-10,-0.05205085,2
15813735,15813382,0.99987066,0.0071168384,-0.010588054,-0.009793303,0.9986445,8.3789947e-10,-4.9280435e-10,-0.05205085,2
15861763,15861297,0.999874,0.007340313,-0.010137855,-0.009767078,0.9986445,8.3789947e-10,-4.9280435e-10,-0.05205085,2
15913313,15913024,0.9998695,0.007788681,-0.0104524065,-0.009545077,0.9986445,8.3789947e-10,-4.9280435e-10,-0.05205085,2
15965303,15965015,0.99987614,0.0072216094,-0.010701917,-0.008996907,0.9986445,8.3789947e-10,-4.9280435e-10,-0.05205085,2
16013079,16012791,0.9998848,0.0065149446,-0.010855479,-0.008379215,0.9986445,8.3789947e-10,-4.9280435e-10,-0.05205085,2
16061304,16060900,0.9998928,0.0061273747,-0.010595002,-0.0080417795,0.9986445,8.3789947e-10,-4.9280435e-10,-0.05205085,2
16112788,16112486,0.99990135,0.0063683866,-0.010659435,-0.006566022,0.9986445,8.3789947e-10,-4.9280435e-10,-0.05205085,2
16164719,16164374,0.9999094,0.0057236804,-0.010867522,-0.005517295,0.9986445,8.3789947e-10,-4.9280435e-10,-0.05205085,2
16213518,16213229,0.9999211,0.005531464,-0.010397733,-0.0043778196,0.9986445,8.3789947e-10,-4.9280435e-10,-0.05205085,2
16261499,16261210,0.99992967,0.0043642307,-0.010281541,-0.004004084,0.9986445,8.3789947e-10,-4.9280435e-10,-0.05205085,2
16313385,16313090,0.999932,0.0041482463,-0.010297962,-0.0035941815,0.9986445,8.3789947e-10,-4.9280435e-10,-0.05205085,2
16365130,16364834,0.99992937,0.0050322334,-0.010219351,-0.0033928687,0.9986445,8.3789947e-10,-4.9280435e-10,-0.05205085,2
16413107,16412817,0.9999298,0.0054451465,-0.010123749,-0.002858892,0.9986445,8.3789947e-10,-4.9280435e-10,-0.05205085,2
16464970,16464682,0.99994564,0.0048156176,-0.008705669,-0.0031369806,0.9986445,8.3789947e-10,-4.9280435e-10,-0.05205085,2
16512948,16512654,0.9999455,0.0052367942,-0.008442738,-0.00320089,0.9986445,8.3789947e-10,-4.9280435e-10,-0.05205085,2
16561807,16561393,0.9999523,0.0048653577,-0.0076405103,-0.0036762396,0.9986445,8.3789947e-10,-4.9280435e-10,-0.05205085,2
16613618,16613325,0.99995565,0.0039582807,-0.0074563436,-0.0041863546,0.9986445,8.3789947e-10,-4.9280435e-10,-0.05205085,2
16661517,16661226,0.99996126,0.0038907467,-0.006693291,-0.004198712,0.9986445,8.3789947e-10,-4.9280435e-10,-0.05205085,2
16713120,16712828,0.99996114,0.00427968,-0.0059921406,-0.0048699197,0.9986445,8.3789947e-10,-4.9280435e-10,-0.05205085,2
16760743,16760444,0.99995905,0.0038726756,-0.0060493,-0.005497279,0.9986445,8.3789947e-10,-4.9280435e-10,-0.05205085,2
16813245,16812954,0.99996036,0.0043494087,-0.0052963085,-0.005700322,0.9986445,8.3789947e-10,-4.9280435e-10,-0.05205085,2
16865389,16865096,0.9999677,0.0046126773,-0.0042123175,-0.0050715185,0.9986445,8.3789947e-10,-4.9280435e-10,-0.05205085,2
16913116,16912826,0.99997133,0.004243487,-0.004143651,-0.0047169235,0.9986445,8.3789947e-10,-4.9280435e-10,-0.05205085,2
16961064,16960772,0.99997634,0.003984466,-0.0035811937,-0.0043372745,0.9986445,8.3789947e-10,-4.9280435e-10,-0.05205085,2
17012749,17012453,0.9999798,0.00421418,-0.0028801623,-0.0038118507,0.9986445,8.3789947e-10,-4.9280435e-10,-0.05205085,2
17061783,17061492,0.99998474,0.00353828,-0.0029423756,-0.0030807161,0.9986445,8.3789947e-10,-4.9280435e-10,-0.05205085,2
17113233,17112946,0.99998534,0.0040081013,-0.0029432054,-0.0021774378,0.9986445,8.3789947e-10,-4.9280435e-10,-0.05205085,2
17161146,17160854,0.99998504,0.0046738703,-0.002181226,-0.0018140568,0.9986445,8.3789947e-10,-4.9280435e-10,-0.05205085,2
17214049,17213761,0.9999847,0.0047891196,-0.0020117424,-0.0019034202,0.9986445,8.3789947e-10,-4.9280435e-10,-0.05205085,2
17261587,17261288,0.99998224,0.0050866324,-0.002840331,-0.0013175227,0.9986445,8.3789947e-10,-4.9280435e-10,-0.05205085,2
17313359,17313072,0.9999815,0.0054608556,-0.0025018407,-0.00091400824,0.9986445,8.3789947e-10,-4.9280435e-10,-0.05205085,2
17365359,17365066,0.99998295,0.0049768602,-0.0026831918,-0.0014745948,0.9986445,8.3789947e-10,-4.9280435e-10,-0.05205085,2
17413565,17413279,0.99997884,0.005823484,-0.0027577502,-0.0009720053,0.9986445,8.3789947e-10,-4.9280435e-10,-0.05205085,2
17460957,17460659,0.99998206,0.005518828,-0.0022024745,-0.0008503814,0.9986445,8.3789947e-10,-4.9280435e-10,-0.05205085,2
17512802,17512509,0.9999818,0.0057749096,-0.0015660168,-0.00071304827,0.9986445,8.3789947e-10,-4.9280435e-10,-0.05205085,2
17564787,17564494,0.99998236,0.0057617673,-0.0011562855,-0.0009130981,0.9986445,8.3789947e-10,-4.9280435e-10,-0.05205085,2
17613681,17613338,0.9999848,0.005356865,-0.00054578047,-0.0011847013,0.9986445,8.3789947e-10,-4.9280435e-10,-0.05205085,2
17661802,17661500,0.9999845,0.005310711,-0.0007400051,-0.0015154643,0.9986445,8.3789947e-10,-4.9280435e-10,-0.05205085,2
17713384,17713099,0.9999838,0.005698611,-0.000140321,-0.00040217605,0.9986445,8.3789947e-10,-4.9280435e-10,-0.05205085,2
17765377,17765087,0.9999838,0.005542879,0.00030269637,-0.0012919115,0.9986445,8.3789947e-10,-4.9280435e-10,-0.05205085,2
17813053,17812765,0.9999841,0.005338268,0.0008782582,-0.0016302663,0.9986445,8.3789947e-10,-4.9280435e-10,-0.05205085,2
17864853,17864558,0.99998665,0.0049066925,0.00051557564,-0.0015365296,0.9986445,8.3789947e-10,-4.9280435e-10,-0.05205085,2
17912882,17912582,0.9999811,0.005750922,0.0005122381,-0.0021191072,0.9986445,8.3789947e-10,-4.9280435e-10,-0.05205085,2
17961923,17961634,0.999985,0.004854635,0.00076257443,-0.0024616772,0.9986445,8.3789947e-10,-4.9280435e-10,-0.05205085,2
18013461,18013172,0.9999797,0.0055746986,0.0011374434,-0.002874694,0.9986445,8.3789947e-10,-4.9280435e-10,-0.05205085,2
18065394,18065106,0.99997693,0.0058889627,0.0009988865,-0.0032277855,0.9986445,8.3789947e-10,-4.9280435e-10,-0.05205085,2
18112977,18112691,0.99997765,0.0061788834,0.00026339345,-0.002559167,0.9986445,8.3789947e-10,-4.9280435e-10,-0.05205085,2
18160938,18160638,0.99997574,0.0063882265,0.00027993176,-0.0027566745,0.9986445,8.3789947e-10,-4.9280435e-10,-0.05205085,2
18212916,18212622,0.99997115,0.006920527,0.0006185181,-0.0030687086,0.9986445,8.3789947e-10,-4.9280435e-10,-0.05205085,2
18265772,18265472,0.9999694,0.007150667,0.0006943124,-0.0030945144,0.9986445,8.3789947e-10,-4.9280435e-10,-0.05205085,2
18312947,18312660,0.9999712,0.007110119,0.0008283502,-0.002523771,0.9986445,8.3789947e-10,-4.9280435e-10,-0.05205085,2
18360846,18360383,0.99997306,0.00671851,0.00022668343,-0.0029427412,0.9986445,8.3789947e-10,-4.9280435e-10,-0.05205085,2
18413408,18413121,0.9999745,0.006557381,-0.00056517,-0.0028193218,0.9986445,8.3789947e-10,-4.9280435e-10,-0.05205085,2
18465244,18464949,0.9999765,0.006353993,-0.0004430109,-0.0025629841,0.9986445,8.3789947e-10,-4.9280435e-10,-0.05205085,2
18513070,18512781,0.9999749,0.00629609,-0.00071611843,-0.0031864669,0.9986445,8.3789947e-10,-4.9280435e-10,-0.05205085,2
18560879,18560574,0.999974,0.0061956923,-0.0011143364,-0.0035190857,0.9986445,8.3789947e-10,-4.9280435e-10,-0.05205085,2
18613012,18612725,0.9999734,0.0064659766,-0.0016080681,-0.00297404,0.9986445,8.3789947e-10,-4.9280435e-10,-0.05205085,2
18661849,18661443,0.9999714,0.0068578087,-0.0017970992,-0.0026666687,0.9986445,8.3789947e-10,-4.9280435e-10,-0.05205085,2
18713598,18713307,0.99997246,0.0065806424,-0.00211544,-0.0026939653,0.9986445,8.3789947e-10,-4.9280435e-10,-0.05205085,2
18765196,18764904,0.9999702,0.00669436,-0.0030135103,-0.0023796125,0.9986445,8.3789947e-10,-4.9280435e-10,-0.05205085,2
18812850,18812542,0.9999695,0.0070908153,-0.0025492562,-0.0020503204,0.9986445,8.3789947e-10,-4.9280435e-10,-0.05205085,2
18861814,18861521,0.99996585,0.007618508,-0.0030077428,-0.001128425,0.9986445,8.3789947e-10,-4.9280435e-10,-0.05205085,2
18913528,18913234,0.9999721,0.006746357,-0.003149097,-0.0006044703,0.9986445,8.3789947e-10,-4.9280435e-10,-0.05205085,2
18965507,18965216,0.9999772,0.0062233945,-0.002612312,0.0004256039,0.9986445,8.3789947e-10,-4.9280435e-10,-0.05205085,2
19013475,19013188,0.99996984,0.0069136233,-0.003368136,0.0011003242,0.9986445,8.3789947e-10,-4.9280435e-10,-0.05205085,2
19061128,19060844,0.99997437,0.0062375325,-0.0034550452,0.00067769154,0.9986445,8.3789947e-10,-4.9280435e-10,-0.05205085,2
19113242,19112845,0.99997604,0.0059740082,-0.0035009931,0.00019550213,0.9986445,8.3789947e-10,-4.9280435e-10,-0.05205085,2
19165018,19164731,0.9999767,0.006176119,-0.0028829088,0.000408857,0.9986445,8.3789947e-10,-4.9280435e-10,-0.05205085,2
19212947,19212657,0.9999798,0.005104289,-0.003810702,9.639187e-05,0.9986445,8.3789947e-10,-4.9280435e-10,-0.05205085,2
19261859,19261560,0.9999865,0.004515408,-0.00256254,-0.00034261597,0.9986445,8.3789947e-10,-4.9280435e-10,-0.05205085,2
19313457,19313170,0.9999896,0.0037263785,-0.0024177309,-0.001046511,0.9986445,8.3789947e-10,-4.9280435e-10,-0.05205085,2
19361329,19361038,0.9999889,0.004152902,-0.0020503134,-0.0008936212,0.9986445,8.3789947e-10,-4.9280435e-10,-0.05205085,2
19413319,19413033,0.99998796,0.0042640334,-0.0023066357,-0.0007381563,0.9986445,8.3789947e-10,-4.9280435e-10,-0.05205085,2
19465764,19465462,0.9999847,0.0046572383,-0.002814858,-0.0010925987,0.9986445,8.3789947e-10,-4.9280435e-10,-0.05205085,2
19512977,19512691,0.9999862,0.004708216,-0.0019536589,-0.0013146796,0.9986445,8.3789947e-10,-4.9280435e-10,-0.05205085,2
19560876,19560577,0.9999838,0.0050646965,-0.0022713593,-0.0012641094,0.9986445,8.3789947e-10,-4.9280435e-10,-0.05205085,2
19609874,19609581,0.99998355,0.0047251605,-0.0022717747,-0.0023333214,0.9986445,8.3789947e-10,-4.9280435e-10,-0.05205085,2
19665730,19665390,0.99998367,0.004713661,-0.002880664,-0.0015135767,0.9986445,8.3789947e-10,-4.9280435e-10,-0.05205085,2
19713996,19713703,0.9999825,0.0052750353,-0.0020813888,-0.0017392108,0.9986445,8.3789947e-10,-4.9280435e-10,-0.05205085,2
19761341,19761054,0.9999828,0.005395344,-0.002126518,-0.00097275426,0.9986445,8.3789947e-10,-4.9280435e-10,-0.05205085,2
19813269,19812861,0.99998575,0.0048647607,-0.0021996053,-0.00037383736,0.9986445,8.3789947e-10,-4.9280435e-10,-0.05205085,2
19865143,19864855,0.9999866,0.0042983294,-0.0029190634,-3.4075914e-05,0.9986445,8.3789947e-10,-4.9280435e-10,-0.05205085,2
19912877,19912585,0.99999326,0.0026749107,-0.0024010732,0.00069216086,0.9986445,8.3789947e-10,-4.9280435e-10,-0.05205085,2
19965013,19964722,0.99999183,0.0035075292,-0.0019866603,0.00036899094,0.9986445,8.3789947e-10,-4.9280435e-10,-0.05205085,2
20013391,20013100,0.9999951,0.0030201562,-0.0007909168,0.00020466064,0.9986445,8.3789947e-10,-4.9280435e-10,-0.05205085,2
20061483,20061179,0.99999535,0.003011256,0.0001311044,-0.0004233477,0.9986445,8.3789947e-10,-4.9280435e-10,-0.05205085,2
20113208,20112917,0.9999965,0.002618233,0.00016836083,-0.00047757954,0.9986445,8.3789947e-10,-4.9280435e-10,-0.05205085,2
20164982,20164697,0.9999981,0.001750685,0.0008027771,-0.00037143516,0.9986445,8.3789947e-10,-4.9280435e-10,-0.05205085,2
20213016,20212709,0.9999978,0.0015912825,0.0011636976,-0.0007806517,0.9986445,8.3789947e-10,-4.9280435e-10,-0.05205085,2
20261781,20261476,0.99999815,-0.00021741912,0.0018410318,-0.00063476164,0.9986445,8.3789947e-10,-4.9280435e-10,-0.05205085,2
20309756,20309456,0.9999969,2.9741524e-05,0.002172119,-0.0012107001,0.9986445,8.3789947e-10,-4.9280435e-10,-0.05205085,2
20365897,20365599,0.99999833,-0.00048870395,0.0014197581,-0.0010609612,0.9986445,8.3789947e-10,-4.9280435e-10,-0.05205085,2
20413360,20413073,0.9999963,-0.001074364,0.0020996816,-0.0014113222,0.9986445,8.3789947e-10,-4.9280435e-10,-0.05205085,2
20461361,20461075,0.99999654,-0.00043032147,0.0023054155,-0.0012140353,0.9986445,8.3789947e-10,-4.9280435e-10,-0.05205085,2
20513322,20512904,0.99999297,-0.00082221604,0.0031939405,-0.0017986902,0.9986445,8.3789947e-10,-4.9280435e-10,-0.05205085,2
20564954,20564663,0.99999064,-0.00070645125,0.0036145921,-0.0022985286,0.9986445,8.3789947e-10,-4.9280435e-10,-0.05205085,2
20612969,20612681,0.9999917,-0.00034055195,0.0035499053,-0.001970077,0.9986445,8.3789947e-10,-4.9280435e-10,-0.05205085,2
20665739,20665447,0.99999,-0.0006888858,0.00371549,-0.0024057978,0.9986445,8.3789947e-10,-4.9280435e-10,-0.05205085,2
20713554,20713270,0.99998987,-0.0012465635,0.0027350879,-0.0033609448,0.9986445,8.3789947e-10,-4.9280435e-10,-0.05205085,2
20761513,20761221,0.99998343,-0.0019104995,0.0026851634,-0.0047287256,0.9986445,8.3789947e-10,-4.9280435e-10,-0.05205085,2
20813382,20813096,0.9999856,-0.0014625386,0.0015623689,-0.004936344,0.9986445,8.3789947e-10,-4.9280435e-10,-0.05205085,2
20865103,20864817,0.9999876,-0.0016479118,0.0012343943,-0.004540564,0.9986445,8.3789947e-10,-4.9280435e-10,-0.05205085,2
20913206,20912909,0.999987,-0.0014676114,0.0010663974,-0.0047680065,0.9986445,8.3789947e-10,-4.9280435e-10,-0.05205085,2
20961072,20960777,0.99998736,-0.0012001802,0.0005108438,-0.0048541883,0.9986445,8.3789947e-10,-4.9280435e-10,-0.05205085,2
21009963,21009664,0.9999864,-0.00060362334,0.00034650278,-0.0051775416,0.9986445,8.3789947e-10,-4.9280435e-10,-0.05205085,2
21065843,21065544,0.99998707,-0.001665731,0.00043990792,-0.0047966936,0.9986445,8.3789947e-10,-4.9280435e-10,-0.05205085,2
21113117,21112832,0.99998486,-0.0010539561,0.0004912821,-0.005371804,0.9986445,8.3789947e-10,-4.9280435e-10,-0.05205085,2
21160965,21160676,0.9999914,-0.0007179643,0.00080766954,-0.0039985203,0.9986445,8.3789947e-10,-4.9280435e-10,-0.05205085,2
21213827,21213533,0.9999918,-0.00072299945,0.00025900907,-0.0039768596,0.9986445,8.3789947e-10,-4.9280435e-10,-0.05205085,2
21261797,21261503,0.9999966,-4.4085446e-05,-8.6133594e-05,-0.002607238,0.9986445,8.3789947e-10,-4.9280435e-10,-0.05205085,2
21313518,21313231,0.9999979,0.00055515283,-0.0010541286,-0.0016990742,0.9986445,8.3789947e-10,-4.9280435e-10,-0.05205085,2
21361524,21361236,0.9999957,0.0005820933,-0.0012658262,-0.002606268,0.9986445,8.3789947e-10,-4.9280435e-10,-0.05205085,2
21413205,21412919,0.9999926,0.0015294447,-0.0018351208,-0.0030341605,0.9986445,8.3789947e-10,-4.9280435e-10,-0.05205085,2
21465044,21464752,0.9999924,0.001765605,-0.0018225006,-0.0029852195,0.9986445,8.3789947e-10,-4.9280435e-10,-0.05205085,2
21513433,21513143,0.9999926,0.0017710897,-0.0019175569,-0.0028282453,0.9986445,8.3789947e-10,-4.9280435e-10,-0.05205085,2
21565339,21565052,0.9999911,0.0011277238,-0.0024120936,-0.003275035,0.9986445,8.3789947e-10,-4.9280435e-10,-0.05205085,2
21613692,21613397,0.9999901,0.0005867265,-0.0029329618,-0.0033019877,0.9986445,8.3789947e-10,-4.9280435e-10,-0.05205085,2
21661649,21661354,0.99999046,0.00049975107,-0.002543374,-0.003507328,0.9986445,8.3789947e-10,-4.9280435e-10,-0.05205085,2
21712951,21712665,0.9999892,-0.0001162278,-0.0030116225,-0.0035318998,0.9986445,8.3789947e-10,-4.9280435e-10,-0.05205085,2
21765833,21765539,0.99998474,-0.0004719544,-0.003727653,-0.0040548737,0.9986445,8.3789947e-10,-4.9280435e-10,-0.05205085,2
21813708,21813357,0.9999805,-0.001544686,-0.0041988697,-0.0043558506,0.9986445,8.3789947e-10,-4.9280435e-10,-0.05205085,2
21861793,21861495,0.99997985,-0.0017178537,-0.0046349247,-0.003986166,0.9986445,8.3789947e-10,-4.9280435e-10,-0.05205085,2
21913392,21913106,0.99998313,-0.00041774227,-0.0044381246,-0.0037437682,0.9986445,8.3789947e-10,-4.9280435e-10,-0.05205085,2
21965010,21964724,0.9999864,-0.0006264036,-0.0036888763,-0.003651776,0.9986445,8.3789947e-10,-4.9280435e-10,-0.05205085,2
22012900,22012608,0.9999882,-0.0002212623,-0.002983221,-0.0038424719,0.9986445,8.3789947e-10,-4.9280435e-10,-0.05205085,2
22065876,22065580,0.9999904,0.00020895262,-0.0029406422,-0.0032376663,0.9986445,8.3789947e-10,-4.9280435e-10,-0.05205085,2
22109885,22109592,0.9999881,-0.00035193257,-0.003533414,-0.003376344,0.9986445,8.3789947e-10,-4.9280435e-10,-0.05205085,2
22161798,22161332,0.9999883,-0.00023637785,-0.0041735973,-0.0024616963,0.9986445,8.3789947e-10,-4.9280435e-10,-0.05205085,2
22213553,22213264,0.9999872,-0.00025206848,-0.004425992,-0.002468567,0.9986445,8.3789947e-10,-4.9280435e-10,-0.05205085,2
22265465,22265175,0.9999873,-0.00028845927,-0.0042313095,-0.002758084,0.9986445,8.3789947e-10,-4.9280435e-10,-0.05205085,2
22313092,22312804,0.99998254,-3.8630704e-05,-0.0051249904,-0.0029422275,0.9986445,8.3789947e-10,-4.9280435e-10,-0.05205085,2
22361404,22361110,0.999985,0.00010258564,-0.004757637,-0.002729372,0.9986445,8.3789947e-10,-4.9280435e-10,-0.05205085,2
22412970,22412684,0.99998635,-2.9495037e-05,-0.004340614,-0.0029084105,0.9986445,8.3789947e-10,-4.9280435e-10,-0.05205085,2
22465889,22465595,0.9999842,0.00013449938,-0.004275638,-0.00366784,0.9986445,8.3789947e-10,-4.9280435e-10,-0.05205085,2
22513596,22513309,0.9999833,0.00018178481,-0.004339354,-0.003804633,0.9986445,8.3789947e-10,-4.9280435e-10,-0.05205085,2
22562108,22561814,0.9999823,0.0012146432,-0.004939117,-0.0030906994,0.9986445,8.3789947e-10,-4.9280435e-10,-0.05205085,2
22613428,22613142,0.9999807,0.00095996616,-0.005115296,-0.0034187369,0.9986445,8.3789947e-10,-4.9280435e-10,-0.05205085,2
22665320,22665026,0.9999787,0.00033210398,-0.0052536894,-0.0038616722,0.9986445,8.3789947e-10,-4.9280435e-10,-0.05205085,2
22713160,22712870,0.99997604,-0.00045310255,-0.0056849257,-0.003951879,0.9986445,8.3789947e-10,-4.9280435e-10,-0.05205085,2
22763090,22762807,0.9999792,2.7771444e-05,-0.0051832097,-0.003840113,0.9986445,8.3789947e-10,-4.9280435e-10,-0.05205085,2
22809647,22809297,0.9999785,0.000388004,-0.005435844,-0.0036637369,0.9986445,8.3789947e-10,-4.9280435e-10,-0.05205085,2
22849352,22849059,0.99997246,-0.00023823645,-0.0069566644,-0.0025795812,0.9986445,8.3789947e-10,-4.9280435e-10,-0.05205085,2
22904952,22904652,0.99996376,-0.0022460443,-0.007550265,-0.0032516608,0.9986445,8.3789947e-10,-4.9280435e-10,-0.05205085,2
22965490,22965200,0.9999611,-0.0022892389,-0.007809432,-0.0034224102,0.9986445,8.3789947e-10,-4.9280435e-10,-0.05205085,2
23012996,23012710,0.9999618,-0.0026534,-0.008063747,-0.0021209032,0.9986445,8.3789947e-10,-4.9280435e-10,-0.05205085,2
23062069,23061783,0.9999616,-0.0018505435,-0.008292496,-0.002143953,0.9986445,8.3789947e-10,-4.9280435e-10,-0.05205085,2
23113327,23113036,0.9999617,-0.0022193782,-0.008466225,-0.00031478706,0.9986445,8.3789947e-10,-4.9280435e-10,-0.05205085,2
23165347,23165059,0.99996126,-0.0020151895,-0.008574983,0.00021359864,0.9986445,8.3789947e-10,-4.9280435e-10,-0.05205085,2
23213245,23212955,0.9999498,-0.002324053,-0.009690104,0.0010295616,0.9986445,8.3789947e-10,-4.9280435e-10,-0.05205085,2
23261149,23260860,0.99995,-0.0029276083,-0.009482449,0.0012611427,0.9986445,8.3789947e-10,-4.9280435e-10,-0.05205085,2
23313844,23313550,0.99995595,-0.0029035942,-0.008826219,0.0013681633,0.9986445,8.3789947e-10,-4.9280435e-10,-0.05205085,2
23357720,23357421,0.9999629,-0.0028646574,-0.008043603,0.0011444134,0.9986445,8.3789947e-10,-4.9280435e-10,-0.05205085,2
23413602,23413310,0.999957,-0.0030856426,-0.008721176,0.00066296343,0.9986445,8.3789947e-10,-4.9280435e-10,-0.05205085,2
23461596,23461312,0.9999604,-0.0034823648,-0.008188816,0.0003031509,0.9986445,8.3789947e-10,-4.9280435e-10,-0.05205085,2
23505327,23505029,0.9999581,-0.0035757278,-0.008416888,-0.00032381454,0.9986445,8.3789947e-10,-4.9280435e-10,-0.05205085,2
23559083,23558799,0.9999647,-0.00260063,-0.007768112,-0.001908968,0.9986445,8.3789947e-10,-4.9280435e-10,-0.05205085,2
23613186,23612900,0.9999654,-0.0014877314,-0.00808121,-0.0012984315,0.9986445,8.3789947e-10,-4.9280435e-10,-0.05205085,2
23665041,23664750,0.9999698,-0.001754087,-0.007537063,-0.00080048124,0.9986445,8.3789947e-10,-4.9280435e-10,-0.05205085,2
23713789,23713490,0.99997425,-0.0018547493,-0.006935289,-0.00019403976,0.9986445,8.3789947e-10,-4.9280435e-10,-0.05205085,2
23761618,23761329,0.9999756,-0.0017740716,-0.006736256,-0.000629865,0.9986445,8.3789947e-10,-4.9280435e-10,-0.05205085,2
23813503,23813209,0.9999741,-0.0019841471,-0.0069198846,-0.00048763028,0.9986445,8.3789947e-10,-4.9280435e-10,-0.05205085,2
23865508,23865211,0.999978,-0.0018922768,-0.006361447,-0.00020869588,0.9986445,8.3789947e-10,-4.9280435e-10,-0.05205085,2
23913368,23913070,0.9999789,-0.0008646662,-0.006439032,-0.00029069802,0.9986445,8.3789947e-10,-4.9280435e-10,-0.05205085,2
23961250,23960950,0.99997663,-0.0021121348,-0.006406299,-0.0010791214,0.9986445,8.3789947e-10,-4.9280435e-10,-0.05205085,2
24013305,24012894,0.9999748,-0.0016823373,-0.0067587392,-0.0014188404,0.9986445,8.3789947e-10,-4.9280435e-10,-0.05205085,2
24061978,24061673,0.9999735,-0.0008249883,-0.006948346,-0.0020500803,0.9986445,8.3789947e-10,-4.9280435e-10,-0.05205085,2
24109932,24109639,0.9999758,-0.000392331,-0.006405248,-0.002716397,0.9986445,8.3789947e-10,-4.9280435e-10,-0.05205085,2
24161639,24161345,0.9999748,-0.00075209484,-0.0066180304,-0.0024458803,0.9986445,8.3789947e-10,-4.9280435e-10,-0.05205085,2
24213106,24212815,0.9999719,-0.0013853046,-0.0071015977,-0.0019890668,0.9986445,8.3789947e-10,-4.9280435e-10,-0.05205085,2
24261095,24260811,0.9999751,-0.0014922735,-0.0067437342,-0.0014813703,0.9986445,8.3789947e-10,-4.9280435e-10,-0.05205085,2
24313515,24313228,0.9999752,-0.0016010889,-0.006725572,-0.0013660344,0.9986445,8.3789947e-10,-4.9280435e-10,-0.05205085,2
24365512,24365229,0.9999744,-0.0010998731,-0.006752469,-0.002078782,0.9986445,8.3789947e-10,-4.9280435e-10,-0.05205085,2
24413385,24413099,0.9999746,-0.0006959363,-0.0067154756,-0.0023060343,0.9986445,8.3789947e-10,-4.9280435e-10,-0.05205085,2
24461259,24460859,0.9999754,-0.0006539182,-0.006660522,-0.0021392733,0.9986445,8.3789947e-10,-4.9280435e-10,-0.05205085,2
24513149,24512864,0.99997544,-0.0009088997,-0.006584853,-0.002223719,0.9986445,8.3789947e-10,-4.9280435e-10,-0.05205085,2
24562038,24561753,0.9999714,-0.0015071869,-0.007017538,-0.002398892,0.9986445,8.3789947e-10,-4.9280435e-10,-0.05205085,2
24612994,24612710,0.9999737,-0.0018092463,-0.0063692387,-0.002963864,0.9986445,8.3789947e-10,-4.9280435e-10,-0.05205085,2
24662012,24661727,0.9999779,-0.0011128624,-0.006111719,-0.0023914017,0.9986445,8.3789947e-10,-4.9280435e-10,-0.05205085,2
24713818,24713526,0.9999755,-0.00096115103,-0.006582387,-0.0021825961,0.9986445,8.3789947e-10,-4.9280435e-10,-0.05205085,2
24761721,24761426,0.99997455,-0.000109707085,-0.006840428,-0.0020166368,0.9986445,8.3789947e-10,-4.9280435e-10,-0.05205085,2
24813568,24813276,0.99997437,0.00048707842,-0.0069330004,-0.001736536,0.9986445,8.3789947e-10,-4.9280435e-10,-0.05205085,2
24861313,24861023,0.99997497,-0.000120919394,-0.006670943,-0.0023606517,0.9986445,8.3789947e-10,-4.9280435e-10,-0.05205085,2
24913293,24913007,0.9999752,0.00014807256,-0.0066018766,-0.0024650472,0.9986445,8.3789947e-10,-4.9280435e-10,-0.05205085,2
24961172,24960884,0.9999722,5.2038362e-05,-0.0069869403,-0.0026100082,0.9986445,8.3789947e-10,-4.9280435e-10,-0.05205085,2
25013944,25013658,0.9999738,0.00013918272,-0.0068744435,-0.0022781272,0.9986445,8.3789947e-10,-4.9280435e-10,-0.05205085,2
25065945,25065654,0.99997616,-0.0007195352,-0.0067444067,-0.0013370577,0.9986445,8.3789947e-10,-4.9280435e-10,-0.05205085,2
25113751,25113402,0.9999803,-0.00077548466,-0.006206662,-0.0006376884,0.9986445,8.3789947e-10,-4.9280435e-10,-0.05205085,2
25161746,25161405,0.9999835,-0.0008655454,-0.005676891,5.2213306e-07,0.9986445,8.3789947e-10,-4.9280435e-10,-0.05205085,2
25213281,25212988,0.9999832,-9.072879e-05,-0.0058026114,0.00016771044,0.9986445,8.3789947e-10,-4.9280435e-10,-0.05205085,2
25265182,25264895,0.99998564,-0.00017721868,-0.0053521693,-0.00018544545,0.9986445,8.3789947e-10,-4.9280435e-10,-0.05205085,2
25313996,25313710,0.99998224,0.00031172248,-0.005949581,0.000110936635,0.9986445,8.3789947e-10,-4.9280435e-10,-0.05205085,2
25361587,25361296,0.9999884,0.0005483488,-0.004792462,0.00037403707,0.9986445,8.3789947e-10,-4.9280435e-10,-0.05205085,2
25413479,25413185,0.9999902,0.0008666978,-0.0043119662,0.00054810714,0.9986445,8.3789947e-10,-4.9280435e-10,-0.05205085,2
25465352,25465065,0.9999925,0.0005329086,-0.0038255302,-0.00039394127,0.9986445,8.3789947e-10,-4.9280435e-10,-0.05205085,2
25513278,25512988,0.99999434,0.00043259235,-0.0032030742,-0.000953983,0.9986445,8.3789947e-10,-4.9280435e-10,-0.05205085,2
25561085,25560798,0.999993,0.00015747898,-0.003495153,-0.0013235897,0.9986445,8.3789947e-10,-4.9280435e-10,-0.05205085,2
25609929,25609639,0.9999916,0.0005435241,-0.0037736534,-0.0015094721,0.9986445,8.3789947e-10,-4.9280435e-10,-0.05205085,2
25659121,25658837,0.9999932,0.00031215674,-0.002828468,-0.0023631547,0.9986445,8.3789947e-10,-4.9280435e-10,-0.05205085,2
25713652,25713313,0.99999267,0.0016578748,-0.0017843714,-0.002988334,0.9986445,8.3789947e-10,-4.9280435e-10,-0.05205085,2
25765585,25765294,0.9999916,0.0021593696,-0.0021845612,-0.002749623,0.9986445,8.3789947e-10,-4.9280435e-10,-0.05205085,2
25813322,25813031,0.9999926,0.0022309362,-0.0011852416,-0.0028803747,0.9986445,8.3789947e-10,-4.9280435e-10,-0.05205085,2
25862176,25861887,0.99999416,0.0018640594,-0.0008012585,-0.0027509911,0.9986445,8.3789947e-10,-4.9280435e-10,-0.05205085,2
25909897,25909598,0.9999964,0.0015220515,-0.00034461473,-0.0021721146,0.9986445,8.3789947e-10,-4.9280435e-10,-0.05205085,2
25965852,25965552,0.99999446,0.0019095116,-0.00074868224,-0.002618224,0.9986445,8.3789947e-10,-4.9280435e-10,-0.05205085,2
26013641,26013297,0.9999942,0.0017650016,-0.00061882363,-0.002843008,0.9986445,8.3789947e-10,-4.9280435e-10,-0.05205085,2
26061337,26061048,0.9999946,0.0015587407,-5.605985e-05,-0.0029235494,0.9986445,8.3789947e-10,-4.9280435e-10,-0.05205085,2
26113439,26113149,0.99999315,0.0017448107,0.00041580616,-0.0032647017,0.9986445,8.3789947e-10,-4.9280435e-10,-0.05205085,2
26165283,26164997,0.9999934,0.0016513058,4.55042e-05,-0.00325718,0.9986445,8.3789947e-10,-4.9280435e-10,-0.05205085,2
26213982,26213691,0.99999577,0.0010099119,0.00017431735,-0.0027092707,0.9986445,8.3789947e-10,-4.9280435e-10,-0.05205085,2
26257820,26257528,0.99999565,0.00065019284,-3.7114016e-05,-0.0028832427,0.9986445,8.3789947e-10,-4.9280435e-10,-0.05205085,2
26313879,26313581,0.9999962,-0.0004114784,0.0009837061,-0.0025510197,0.9986445,8.3789947e-10,-4.9280435e-10,-0.05205085,2
26361895,26361595,0.999994,4.16681e-05,0.0007120581,-0.003403563,0.9986445,8.3789947e-10,-4.9280435e-10,-0.05205085,2
26413599,26413312,0.9999945,0.0004202278,0.0009634642,-0.0031467448,0.9986445,8.3789947e-10,-4.9280435e-10,-0.05205085,2
26465310,26465012,0.99999493,0.0008496626,0.0009959692,-0.002905357,0.9986445,8.3789947e-10,-4.9280435e-10,-0.05205085,2
26513237,26512951,0.99999595,0.00055866095,-2.4204466e-05,-0.0028226885,0.9986445,8.3789947e-10,-4.9280435e-10,-0.05205085,2
26561868,26561574,0.99999535,0.0003053913,-0.001005248,-0.0028731641,0.9986445,8.3789947e-10,-4.9280435e-10,-0.05205085,2
26609737,26609443,0.9999972,0.0003114684,-0.00086766115,-0.0021881824,0.9986445,8.3789947e-10,-4.9280435e-10,-0.05205085,2
26665527,26665238,0.9999984,0.00029919844,-0.0012174224,-0.0013263884,0.9986445,8.3789947e-10,-4.9280435e-10,-0.05205085,2
26713377,26713091,0.99999857,-5.608695e-05,-0.0006323225,-0.0015920541,0.9986445,8.3789947e-10,-4.9280435e-10,-0.05205085,2
26762051,26761765,0.99999833,-0.00045093405,-0.0010891454,-0.0013959139,0.9986445,8.3789947e-10,-4.9280435e-10,-0.05205085,2
26813808,26813511,0.99999845,-0.00045320197,-0.0012425787,-0.0012361174,0.9986445,8.3789947e-10,-4.9280435e-10,-0.05205085,2
26865557,26865254,0.99999833,-0.00017685081,-0.0013365491,-0.0012186919,0.9986445,8.3789947e-10,-4.9280435e-10,-0.05205085,2
26913248,26912956,0.99999654,-0.00087459764,-0.0020477837,-0.0014485063,0.9986445,8.3789947e-10,-4.9280435e-10,-0.05205085,2
26961861,26961567,0.9999939,-0.0011371719,-0.0031094083,-0.0011205536,0.9986445,8.3789947e-10,-4.9280435e-10,-0.05205085,2
27013633,27013337,0.9999912,-0.0014064511,-0.0038991363,-0.000806989,0.9986445,8.3789947e-10,-4.9280435e-10,-0.05205085,2
27061468,27061175,0.99998456,-0.00229417,-0.004588694,-0.002134136,0.9986445,8.3789947e-10,-4.9280435e-10,-0.05205085,2
27113392,27113104,0.99997365,-0.0032173425,-0.0059891827,-0.0025315515,0.9986445,8.3789947e-10,-4.9280435e-10,-0.05205085,2
27165244,27164958,0.999951,-0.005165764,-0.008164857,-0.00216778,0.9986445,8.3789947e-10,-4.9280435e-10,-0.05205085,2
27201438,27201149,0.9999504,-0.005397683,-0.008100186,-0.0021323136,0.9986445,8.3789947e-10,-4.9280435e-10,-0.05205085,2
27262057,27261763,0.999901,-0.007732136,-0.011629821,-0.0017623649,0.9986445,8.3789947e-10,-4.9280435e-10,-0.05205085,2
27309908,27309614,0.99987715,-0.010526104,-0.011356462,-0.0024530424,0.9986445,8.3789947e-10,-4.9280435e-10,-0.05205085,2
27365656,27365359,0.99987817,-0.009820575,-0.011469412,-0.003966688,0.9986445,8.3789947e-10,-4.9280435e-10,-0.05205085,2
27413643,27413351,0.9998684,-0.009724649,-0.012245163,-0.00433458,0.9986445,8.3789947e-10,-4.9280435e-10,-0.05205085,2
27461531,27461240,0.9999078,-0.0077323997,-0.010151806,-0.0046432395,0.9986445,8.3789947e-10,-4.9280435e-10,-0.05205085,2
27513427,27513133,0.99991345,-0.0065209796,-0.010229616,-0.005100074,0.9986445,8.3789947e-10,-4.9280435e-10,-0.05205085,2
27562100,27561807,0.99992436,-0.006798419,-0.009089024,-0.0047347266,0.9986445,8.3789947e-10,-4.9280435e-10,-0.05205085,2
27613791,27613499,0.9999504,-0.0052978885,-0.006785132,-0.005015971,0.9986445,8.3789947e-10,-4.9280435e-10,-0.05205085,2
27661793,27661495,0.9999433,-0.0049455864,-0.007404766,-0.0058461227,0.9986445,8.3789947e-10,-4.9280435e-10,-0.05205085,2
27713574,27713282,0.99997026,-0.002876314,-0.004481296,-0.005581765,0.9986445,8.3789947e-10,-4.9280435e-10,-0.05205085,2
27761437,27761146,0.9999779,-0.0028570679,-0.0032923743,-0.0050217784,0.9986445,8.3789947e-10,-4.9280435e-10,-0.05205085,2
27813301,27813017,0.99997383,0.0012031228,-0.0038369328,-0.006022672,0.9986445,8.3789947e-10,-4.9280435e-10,-0.05205085,2
27865352,27865060,0.99997896,-0.0009610623,-0.00020574253,-0.006420167,0.9986445,8.3789947e-10,-4.9280435e-10,-0.05205085,2
27914109,27913820,0.99997234,0.0011790753,0.00014930806,-0.0073488145,0.9986445,8.3789947e-10,-4.9280435e-10,-0.05205085,2
27961898,27961586,0.9999543,0.00085406663,0.0016196701,-0.009383549,0.9986445,8.3789947e-10,-4.9280435e-10,-0.05205085,2
28013284,28012992,0.9999447,0.0015198089,0.0021022463,-0.010201595,0.9986445,8.3789947e-10,-4.9280435e-10,-0.05205085,2
28065281,28064992,0.99992555,0.0023143417,0.0044985646,-0.011108919,0.9986445,8.3789947e-10,-4.9280435e-10,-0.05205085,2
28114059,28113766,0.9999353,0.0019649826,0.0049464297,-0.010061426,0.9986445,8.3789947e-10,-4.9280435e-10,-0.05205085,2
28161929,28161637,0.9999379,0.0041073235,0.003467552,-0.009768556,0.9986445,8.3789947e-10,-4.9280435e-10,-0.05205085,2
28213794,28213501,0.9999258,0.0021506024,0.0055048126,-0.010659823,0.9986445,8.3789947e-10,-4.9280435e-10,-0.05205085,2
28265589,28265295,0.9999235,0.0030880857,0.0054021073,-0.010688912,0.9986445,8.3789947e-10,-4.9280435e-10,-0.05205085,2
28313453,28313167,0.99993336,0.0027816049,0.00589217,-0.009535846,0.9986445,8.3789947e-10,-4.9280435e-10,-0.05205085,2
28361330,28361041,0.9999372,0.0008214501,0.0053661764,-0.009807896,0.9986445,8.3789947e-10,-4.9280435e-10,-0.05205085,2
28413871,28413578,0.99992573,0.0019288869,0.006735754,-0.009978848,0.9986445,8.3789947e-10,-4.9280435e-10,-0.05205085,2
28461884,28461586,0.99994385,-0.00068507943,0.003716942,-0.0099055,0.9986445,8.3789947e-10,-4.9280435e-10,-0.05205085,2
28513486,28513182,0.99993443,-0.00012727035,0.004009016,-0.010729316,0.9986445,8.3789947e-10,-4.9280435e-10,-0.05205085,2
28561289,28560996,0.99993527,0.00054347137,0.0026962631,-0.011048322,0.9986445,8.3789947e-10,-4.9280435e-10,-0.05205085,2
28613742,28613438,0.99993825,-0.0010102856,0.0029907597,-0.010656655,0.9986445,8.3789947e-10,-4.9280435e-10,-0.05205085,2
28661406,28661116,0.9999506,-0.0002554763,0.0036150164,-0.0092587685,0.9986445,8.3789947e-10,-4.9280435e-10,-0.05205085,2
28713172,28712887,0.9999617,-0.0023937628,0.0017019941,-0.00825483,0.9986445,8.3789947e-10,-4.9280435e-10,-0.05205085,2
28762081,28761791,0.99995863,-0.0027693636,0.002302387,-0.008348483,0.9986445,8.3789947e-10,-4.9280435e-10,-0.05205085,2
28813412,28813126,0.9999622,-0.0042159706,0.001676889,-0.0074231685,0.9986445,8.3789947e-10,-4.9280435e-10,-0.05205085,2
28861363,28861074,0.99996775,-0.0031579651,0.001333721,-0.0072744065,0.9986445,8.3789947e-10,-4.9280435e-10,-0.05205085,2
28913329,28912926,0.99996793,-0.004730851,-0.0002603401,-0.0064518508,0.9986445,8.3789947e-10,-4.9280435e-10,-0.05205085,2
28962051,28961753,0.9999618,-0.0050116596,-0.0010561161,-0.0070819193,0.9986445,8.3789947e-10,-4.9280435e-10,-0.05205085,2
29013923,29013626,0.99996156,-0.004829779,-0.0020658858,-0.0070223478,0.9986445,8.3789947e-10,-4.9280435e-10,-0.05205085,2
29061887,29061580,0.9999618,-0.0047779544,-0.0033992443,-0.0064820526,0.9986445,8.3789947e-10,-4.9280435e-10,-0.05205085,2
29113712,29113419,0.9999575,-0.0060739797,-0.0017305748,-0.0067279004,0.9986445,8.3789947e-10,-4.9280435e-10,-0.05205085,2
29161837,29161421,0.99995404,-0.006051217,-0.0041131545,-0.006209781,0.9986445,8.3789947e-10,-4.9280435e-10,-0.05205085,2
29213374,29213082,0.99981725,-0.0069420445,-0.002787985,-0.017595649,0.999934,6.113494e-12,6.7344026e-11,-0.011488167,3
29265216,29264929,0.9998381,-0.006901659,-0.0028021573,-0.016380016,0.999934,6.113494e-12,6.7344026e-11,-0.011488167,3
29313106,29312819,0.9998626,-0.0051221787,-0.005773505,-0.014669012,0.999934,6.113494e-12,6.7344026e-11,-0.011488167,3
29362012,29361721,0.9999072,-0.0051651895,-0.0035188817,-0.012110009,0.999934,6.113494e-12,6.7344026e-11,-0.011488167,3
29409989,29409690,0.99991864,-0.006127173,-0.0038980045,-0.010491495,0.999934,6.113494e-12,6.7344026e-11,-0.011488167,3
29465730,29465437,0.99993277,-0.0065244394,-0.004592392,-0.008414262,0.999934,6.113494e-12,6.7344026e-11,-0.011488167,3
29513581,29513296,0.99994594,-0.007817576,-0.0016674981,-0.0066483524,0.999934,6.113494e-12,6.7344026e-11,-0.011488167,3
29561638,29561338,0.99992704,-0.008859119,-0.0066052256,-0.00488796,0.999934,6.113494e-12,6.7344026e-11,-0.011488167,3
29613442,29613147,0.9999435,-0.0073113884,-0.005899862,-0.0049746926,0.999934,6.113494e-12,6.7344026e-11,-0.011488167,3
29665201,29664913,0.99994206,-0.008093746,-0.0053772526,-0.004651545,0.999934,6.113494e-12,6.7344026e-11,-0.011488167,3
29713551,29713266,0.99992806,-0.0074563855,-0.008254793,-0.0044946563,0.999934,6.113494e-12,6.7344026e-11,-0.011488167,3
29761655,29761354,0.99995416,-0.005772928,-0.0060484987,-0.0046655983,0.999934,6.113494e-12,6.7344026e-11,-0.011488167,3
29813319,29813025,0.99993545,-0.006993395,-0.007976412,-0.0040787626,0.999934,6.113494e-12,6.7344026e-11,-0.011488167,3
29861259,29860973,0.99994737,-0.0058974302,-0.0074571627,-0.0038492973,0.999934,6.113494e-12,6.7344026e-11,-0.011488167,3
29913705,29913359,0.99995035,-0.006300794,-0.0063006645,-0.0044704154,0.999934,6.113494e-12,6.7344026e-11,-0.011488167,3
29965618,29965327,0.9999387,-0.0065224,-0.0073156212,-0.0051641273,0.999934,6.113494e-12,6.7344026e-11,-0.011488167,3
30013485,30013194,0.9999552,-0.0061922027,-0.005313466,-0.0048209284,0.999934,6.113494e-12,6.7344026e-11,-0.011488167,3
30061462,30061170,0.99994683,-0.005667005,-0.007326966,-0.004529085,0.999934,6.113494e-12,6.7344026e-11,-0.011488167,3
30110314,30109913,0.9999524,-0.005086457,-0.006913112,-0.0046640937,0.999934,6.113494e-12,6.7344026e-11,-0.011488167,3
30166084,30165788,0.9999659,-0.0042151306,-0.0052173343,-0.0048283725,0.999934,6.113494e-12,6.7344026e-11,-0.011488167,3
30213426,30213128,0.9999526,-0.005796302,-0.0064820726,-0.004380768,0.999934,6.113494e-12,6.7344026e-11,-0.011488167,3
30261489,30261190,0.99995744,-0.0031307607,-0.008144365,-0.0030039677,0.999934,6.113494e-12,6.7344026e-11,-0.011488167,3
30313462,30313174,0.9999582,-0.0047585,-0.007083229,-0.003278488,0.999934,6.113494e-12,6.7344026e-11,-0.011488167,3
30365373,30365087,0.9999503,-0.0036476962,-0.0086332485,-0.0034275712,0.999934,6.113494e-12,6.7344026e-11,-0.011488167,3
30413201,30412915,0.99995065,-0.005152855,-0.0077680214,-0.003454459,0.999934,6.113494e-12,6.7344026e-11,-0.011488167,3
30462168,30461878,0.9999508,-0.0041437224,-0.008243537,-0.0036481095,0.999934,6.113494e-12,6.7344026e-11,-0.011488167,3
30513894,30513603,0.9999538,-0.003234336,-0.007934008,-0.004347502,0.999934,6.113494e-12,6.7344026e-11,-0.011488167,3
30561933,30561640,0.99995476,-0.0023110583,-0.0080973795,-0.0044336193,0.999934,6.113494e-12,6.7344026e-11,-0.011488167,3
30613673,30613378,0.99996364,-0.0027101391,-0.0069355285,-0.004162771,0.999934,6.113494e-12,6.7344026e-11,-0.011488167,3
30665622,30665331,0.99996066,-0.004204336,-0.0066630524,-0.004066236,0.999934,6.113494e-12,6.7344026e-11,-0.011488167,3
30713500,30713196,0.99996483,-0.0033406576,-0.0061700465,-0.004593026,0.999934,6.113494e-12,6.7344026e-11,-0.011488167,3
30761475,30761177,0.9999582,-0.0042573516,-0.005916847,-0.005528829,0.999934,6.113494e-12,6.7344026e-11,-0.011488167,3
30810379,30810088,0.99993473,-0.0030707424,-0.00929512,-0.0059048086,0.999934,6.113494e-12,6.7344026e-11,-0.011488167,3
30858113,30857827,0.99994385,-0.0047980957,-0.0073152864,-0.0059906645,0.999934,6.113494e-12,6.7344026e-11,-0.011488167,3
30913903,30913611,0.9999377,-0.0037672834,-0.008203527,-0.0065695816,0.999934,6.113494e-12,6.7344026e-11,-0.011488167,3
30961911,30961614,0.9999422,-0.002792595,-0.0085389875,-0.005907877,0.999934,6.113494e-12,6.7344026e-11,-0.011488167,3
31013595,31013307,0.99995387,-0.0040351828,-0.0066935658,-0.0056019453,0.999934,6.113494e-12,6.7344026e-11,-0.011488167,3
31061791,31061497,0.99995923,-0.002759828,-0.0071925074,-0.0047206106,0.999934,6.113494e-12,6.7344026e-11,-0.011488167,3
31113812,31113519,0.99996674,-0.0021659487,-0.0066639436,-0.0041867765,0.999934,6.113494e-12,6.7344026e-11,-0.011488167,3
31161343,31161057,0.9999679,-0.0021145858,-0.0068736607,-0.0035648409,0.999934,6.113494e-12,6.7344026e-11,-0.011488167,3
31213197,31212907,0.9999708,-0.0028772221,-0.0063646133,-0.0031109697,0.999934,6.113494e-12,6.7344026e-11,-0.011488167,3
31262254,31261962,0.99997467,-0.0007848121,-0.006102094,-0.0035794282,0.999934,6.113494e-12,6.7344026e-11,-0.011488167,3
31313942,31313652,0.9999692,-0.0021476133,-0.006919222,-0.0030320517,0.999934,6.113494e-12,6.7344026e-11,-0.011488167,3
31365435,31365124,0.9999789,0.000741872,-0.0060298736,-0.0023096297,0.999934,6.113494e-12,6.7344026e-11,-0.011488167,3
31414246,31413958,0.9999709,3.2099237e-05,-0.007226138,-0.0024810813,0.999934,6.113494e-12,6.7344026e-11,-0.011488167,3
31462083,31461790,0.99999106,0.0007645547,-0.0038956497,-0.0015002191,0.999934,6.113494e-12,6.7344026e-11,-0.011488167,3
31513959,31513669,0.99998504,0.001969161,-0.0051021115,-0.00024843076,0.999934,6.113494e-12,6.7344026e-11,-0.011488167,3
31565319,31565031,0.9999792,0.0013417098,-0.0063114525,0.00035808186,0.999934,6.113494e-12,6.7344026e-11,-0.011488167,3
31614122,31613837,0.99998975,0.0027387452,-0.0035413825,0.0007664466,0.999934,6.113494e-12,6.7344026e-11,-0.011488167,3
31661723,31661424,0.9999816,0.00216003,-0.005514941,0.0013765206,0.999934,6.113494e-12,6.7344026e-11,-0.011488167,3
31713478,31713184,0.9999851,0.0027204633,-0.004721537,0.00049128477,0.999934,6.113494e-12,6.7344026e-11,-0.011488167,3
31765568,31765275,0.9999762,0.0033366894,-0.006027457,-0.00018089572,0.999934,6.113494e-12,6.7344026e-11,-0.011488167,3
31813328,31813039,0.99998057,0.0030502642,-0.005254333,-0.0014220129,0.999934,6.113494e-12,6.7344026e-11,-0.011488167,3
31861427,31861136,0.9999714,0.0022787885,-0.00698887,-0.0017869258,0.999934,6.113494e-12,6.7344026e-11,-0.011488167,3
31914157,31913870,0.99996215,0.0036503298,-0.007157896,-0.0033378594,0.999934,6.113494e-12,6.7344026e-11,-0.011488167,3
31961975,31961688,0.9999702,0.0030061097,-0.0055293404,-0.004470795,0.999934,6.113494e-12,6.7344026e-11,-0.011488167,3
32014018,32013728,0.99996734,0.0037412602,-0.005676013,-0.004366244,0.999934,6.113494e-12,6.7344026e-11,-0.011488167,3
32065863,32065566,0.9999616,0.0035097974,-0.0056662527,-0.0056911176,0.999934,6.113494e-12,6.7344026e-11,-0.011488167,3
32113733,32113433,0.999958,0.0032543514,-0.0065093157,-0.005572197,0.999934,6.113494e-12,6.7344026e-11,-0.011488167,3
32161584,32161293,0.99996316,0.0022956794,-0.0064476803,-0.0052032107,0.999934,6.113494e-12,6.7344026e-11,-0.011488167,3
32213441,32213158,0.9999576,0.0030785862,-0.0073750084,-0.004570235,0.999934,6.113494e-12,6.7344026e-11,-0.011488167,3
32265215,32264930,0.99995714,0.0040654754,-0.0067341756,-0.0049004694,0.999934,6.113494e-12,6.7344026e-11,-0.011488167,3
32314219,32313934,0.99995786,0.0034337025,-0.0072370563,-0.0044941353,0.999934,6.113494e-12,6.7344026e-11,-0.011488167,3
32361733,32361388,0.99996096,0.003183753,-0.007040871,-0.0042823046,0.999934,6.113494e-12,6.7344026e-11,-0.011488167,3
32413451,32413160,0.9999654,0.00295096,-0.0067352997,-0.0038909444,0.999934,6.113494e-12,6.7344026e-11,-0.011488167,3
32461851,32461553,0.9999624,0.0032433425,-0.007282025,-0.0034045016,0.999934,6.113494e-12,6.7344026e-11,-0.011488167,3
32513604,32513314,0.9999657,0.0035279552,-0.0069088764,-0.0028945364,0.999934,6.113494e-12,6.7344026e-11,-0.011488167,3
32561702,32561397,0.99996066,0.0040854653,-0.0075323256,-0.0023022015,0.999934,6.113494e-12,6.7344026e-11,-0.011488167,3
32613320,32613032,0.99996996,0.0027005903,-0.0071085817,-0.0015496472,0.999934,6.113494e-12,6.7344026e-11,-0.011488167,3
32662350,32662058,0.99995893,0.0031261134,-0.008380884,-0.0015148625,0.999934,6.113494e-12,6.7344026e-11,-0.011488167,3
32710171,32709884,0.9999527,0.0048063477,-0.0082701715,-0.001796234,0.999934,6.113494e-12,6.7344026e-11,-0.011488167,3
32766031,32765741,0.9999668,0.0012385021,-0.007637502,-0.0025789798,0.999934,6.113494e-12,6.7344026e-11,-0.011488167,3
32813882,32813593,0.999965,0.0028348241,-0.0069181523,-0.003770077,0.999934,6.113494e-12,6.7344026e-11,-0.011488167,3
32861785,32861486,0.9999697,0.0021447607,-0.006160634,-0.004252903,0.999934,6.113494e-12,6.7344026e-11,-0.011488167,3
32913507,32913203,0.9999672,0.0025944498,-0.005962719,-0.004845037,0.999934,6.113494e-12,6.7344026e-11,-0.011488167,3
32965497,32965208,0.9999719,0.0020779425,-0.005459658,-0.004705347,0.999934,6.113494e-12,6.7344026e-11,-0.011488167,3
33010420,33010131,0.99997354,0.0019146712,-0.005458001,-0.0044168616,0.999934,6.113494e-12,6.7344026e-11,-0.011488167,3
33061734,33061433,0.9999781,0.0026424592,-0.004796485,-0.003735138,0.999934,6.113494e-12,6.7344026e-11,-0.011488167,3
33113587,33113302,0.99998474,0.002058686,-0.004310744,-0.0027878305,0.999934,6.113494e-12,6.7344026e-11,-0.011488167,3
33165548,33165246,0.9999853,0.0017551639,-0.003971668,-0.003255059,0.999934,6.113494e-12,6.7344026e-11,-0.011488167,3
33214221,33213936,0.99998295,0.002974031,-0.0040114075,-0.003051407,0.999934,6.113494e-12,6.7344026e-11,-0.011488167,3
33262208,33261918,0.9999853,0.0022585187,-0.00312767,-0.0038194829,0.999934,6.113494e-12,6.7344026e-11,-0.011488167,3
33313999,33313712,0.999978,0.0025592009,-0.0046979734,-0.0039218673,0.999934,6.113494e-12,6.7344026e-11,-0.011488167,3
33361925,33361633,0.99998856,0.0019103622,-0.0022949039,-0.003743941,0.999934,6.113494e-12,6.7344026e-11,-0.011488167,3
33413698,33413398,0.99998546,0.0016158231,-0.0036275177,-0.0036608167,0.999934,6.113494e-12,6.7344026e-11,-0.011488167,3
33465719,33465378,0.99999154,0.00013459566,-0.0022460069,-0.00345086,0.999934,6.113494e-12,6.7344026e-11,-0.011488167,3
33513449,33513155,0.99998695,0.00053200946,-0.002926069,-0.004146581,0.999934,6.113494e-12,6.7344026e-11,-0.011488167,3
33561893,33561597,0.99998355,-0.0002857531,-0.0032904902,-0.004688144,0.999934,6.113494e-12,6.7344026e-11,-0.011488167,3
33609897,33609605,0.99998516,-0.0005108776,-0.0010137898,-0.0053394833,0.999934,6.113494e-12,6.7344026e-11,-0.011488167,3
33665680,33665386,0.9999887,-0.00075949635,-0.0018567541,-0.004316207,0.999934,6.113494e-12,6.7344026e-11,-0.011488167,3
33713507,33713223,0.99999225,0.00046155462,-0.00047475513,-0.003892058,0.999934,6.113494e-12,6.7344026e-11,-0.011488167,3
33761467,33761178,0.9999909,-0.0013911183,-0.0014585803,-0.0037707302,0.999934,6.113494e-12,6.7344026e-11,-0.011488167,3
33814194,33813906,0.99999136,2.6113878e-05,-0.0010284003,-0.004044889,0.999934,6.113494e-12,6.7344026e-11,-0.011488167,3
33862035,33861736,0.99999243,-0.00078848144,-0.00091932603,-0.0037143072,0.999934,6.113494e-12,6.7344026e-11,-0.011488167,3
33913905,33913614,0.99998844,-0.0016102159,-0.0013702285,-0.004322627,0.999934,6.113494e-12,6.7344026e-11,-0.011488167,3
33961796,33961500,0.99999064,0.00030601048,-0.00011941281,-0.0043128394,0.999934,6.113494e-12,6.7344026e-11,-0.011488167,3
34013591,34013304,0.9999902,-0.00058103603,-0.0015260563,-0.004107795,0.999934,6.113494e-12,6.7344026e-11,-0.011488167,3
34061367,34061077,0.9999933,0.0005033217,-0.00051248097,-0.0036084957,0.999934,6.113494e-12,6.7344026e-11,-0.011488167,3
34110388,34110102,0.9999923,0.0014271337,-0.0021675897,-0.0029382012,0.999934,6.113494e-12,6.7344026e-11,-0.011488167,3
34166133,34165843,0.9999938,0.00017296505,-0.0021400582,-0.0028065692,0.999934,6.113494e-12,6.7344026e-11,-0.011488167,3
34214032,34213746,0.9999913,0.0009733375,-0.0022586666,-0.0033660564,0.999934,6.113494e-12,6.7344026e-11,-0.011488167,3
34261928,34261626,0.99999094,0.00080413953,-0.0014131957,-0.003924551,0.999934,6.113494e-12,6.7344026e-11,-0.011488167,3
34309827,34309522,0.9999895,0.00046165215,-0.0016505002,-0.0042599905,0.999934,6.113494e-12,6.7344026e-11,-0.011488167,3
34365716,34365369,0.9999873,0.001971362,-0.0020189933,-0.0041726767,0.999934,6.113494e-12,6.7344026e-11,-0.011488167,3
34413477,34413186,0.99998915,-0.0003559583,-0.002312392,-0.004049869,0.999934,6.113494e-12,6.7344026e-11,-0.011488167,3
34461446,34461150,0.9999918,0.0019005095,-0.0012289003,-0.0033860311,0.999934,6.113494e-12,6.7344026e-11,-0.011488167,3
34514218,34513931,0.9999846,0.0019381826,-0.004386318,-0.0028200387,0.999934,6.113494e-12,6.7344026e-11,-0.011488167,3
34562363,34562071,0.9999931,0.001454289,-0.002514447,-0.0023340979,0.999934,6.113494e-12,6.7344026e-11,-0.011488167,3
34613937,34613643,0.99998206,0.0044745775,-0.0030895404,-0.0025393735,0.999934,6.113494e-12,6.7344026e-11,-0.011488167,3
34661833,34661539,0.99999166,0.002995824,-0.001744393,-0.0021782415,0.999934,6.113494e-12,6.7344026e-11,-0.011488167,3
34713714,34713375,0.9999815,0.0050040707,-0.0026396525,-0.0022527443,0.999934,6.113494e-12,6.7344026e-11,-0.011488167,3
34761820,34761336,0.99998015,0.0050422293,-0.0029552912,-0.002371317,0.999934,6.113494e-12,6.7344026e-11,-0.011488167,3
34813444,34813135,0.99998033,0.0041134646,-0.0032638093,-0.0034349153,0.999934,6.113494e-12,6.7344026e-11,-0.011488167,3
34866259,34865973,0.99996746,0.00586273,-0.0036769868,-0.004151356,0.999934,6.113494e-12,6.7344026e-11,-0.011488167,3
34914384,34914089,0.9999677,0.004351846,-0.004978645,-0.0045708367,0.999934,6.113494e-12,6.7344026e-11,-0.011488167,3
34962057,34961766,0.99997914,0.003394572,-0.0034345435,-0.00428581,0.999934,6.113494e-12,6.7344026e-11,-0.011488167,3
35009980,35009680,0.99996555,0.0060693366,-0.004342066,-0.0036516353,0.999934,6.113494e-12,6.7344026e-11,-0.011488167,3
35065730,35065437,0.99997145,0.0041359467,-0.005525287,-0.0031003517,0.999934,6.113494e-12,6.7344026e-11,-0.011488167,3
35113672,35113377,0.9999683,0.005667215,-0.0041932627,-0.0037002952,0.999934,6.113494e-12,6.7344026e-11,-0.011488167,3
35161481,35161187,0.99996585,0.0044988175,-0.0059833797,-0.0034947568,0.999934,6.113494e-12,6.7344026e-11,-0.011488167,3
35213467,35213172,0.99997246,0.0054834993,-0.0033049786,-0.003769934,0.999934,6.113494e-12,6.7344026e-11,-0.011488167,3
35265492,35265192,0.99997306,0.003919797,-0.0043643913,-0.0044198236,0.999934,6.113494e-12,6.7344026e-11,-0.011488167,3
35313343,35313055,0.99996585,0.0055635315,-0.0037428217,-0.0048300987,0.999934,6.113494e-12,6.7344026e-11,-0.011488167,3
35361818,35361517,0.9999624,0.0057168105,-0.004420984,-0.004794474,0.999934,6.113494e-12,6.7344026e-11,-0.011488167,3
35413612,35413324,0.9999745,0.0035336358,-0.003833533,-0.0048782653,0.999934,6.113494e-12,6.7344026e-11,-0.011488167,3
35461796,35461374,0.9999646,0.0046424605,-0.004861776,-0.0050571533,0.999934,6.113494e-12,6.7344026e-11,-0.011488167,3
35510444,35510158,0.9999719,0.0019704269,-0.0052513136,-0.0049834456,0.999934,6.113494e-12,6.7344026e-11,-0.011488167,3
35565983,35565688,0.9999716,0.0032761663,-0.004727493,-0.004865892,0.999934,6.113494e-12,6.7344026e-11,-0.011488167,3
35613723,35613383,0.9999628,0.0017642216,-0.006255306,-0.005691416,0.999934,6.113494e-12,6.7344026e-11,-0.011488167,3
35661554,35661255,0.99996924,0.0036971602,-0.0043828725,-0.00536741,0.999934,6.113494e-12,6.7344026e-11,-0.011488167,3
35713360,35713074,0.9999605,0.0032040435,-0.006059769,-0.00567782,0.999934,6.113494e-12,6.7344026e-11,-0.011488167,3
35762258,35761967,0.9999739,0.0019368097,-0.004822316,-0.005031979,0.999934,6.113494e-12,6.7344026e-11,-0.011488167,3
35814139,35813837,0.9999699,0.0035915833,-0.0053915903,-0.0042680283,0.999934,6.113494e-12,6.7344026e-11,-0.011488167,3
35862003,35861716,0.9999832,0.0009693451,-0.004546203,-0.0034698006,0.999934,6.113494e-12,6.7344026e-11,-0.011488167,3
35914004,35913706,0.9999731,0.0040638894,-0.0055184774,-0.0026297814,0.999934,6.113494e-12,6.7344026e-11,-0.011488167,3
35961875,35961577,0.99998033,0.002214884,-0.005360147,-0.002421106,0.999934,6.113494e-12,6.7344026e-11,-0.011488167,3
36013639,36013341,0.99998474,0.0034456379,-0.0036973986,-0.0022524353,0.999934,6.113494e-12,6.7344026e-11,-0.011488167,3
36061469,36061176,0.9999801,0.0035044614,-0.004702118,-0.0023428365,0.999934,6.113494e-12,6.7344026e-11,-0.011488167,3
36114312,36114025,0.9999853,0.003168895,-0.003988688,-0.0018674261,0.999934,6.113494e-12,6.7344026e-11,-0.011488167,3
36162275,36161985,0.99996877,0.0064295707,-0.003853407,-0.0024904038,0.999934,6.113494e-12,6.7344026e-11,-0.011488167,3
36210177,36209886,0.9999821,0.0020914483,-0.0048844395,-0.0027743666,0.999934,6.113494e-12,6.7344026e-11,-0.011488167,3
36266033,36265744,0.99998134,0.0030770085,-0.003488093,-0.003980847,0.999934,6.113494e-12,6.7344026e-11,-0.011488167,3
36313854,36313551,0.9999793,0.002545356,-0.0045568417,-0.0037823517,0.999934,6.113494e-12,6.7344026e-11,-0.011488167,3
36361775,36361481,0.9999777,0.0027465841,-0.0048278756,-0.0036959639,0.999934,6.113494e-12,6.7344026e-11,-0.011488167,3
36410421,36410129,0.99997514,0.002470662,-0.005529891,-0.0036218446,0.999934,6.113494e-12,6.7344026e-11,-0.011488167,3
36465904,36465613,0.9999665,0.0015941148,-0.007363624,-0.003194742,0.999934,6.113494e-12,6.7344026e-11,-0.011488167,3
36513733,36513378,0.9999563,0.0036917396,-0.007824037,-0.0035480447,0.999934,6.113494e-12,6.7344026e-11,-0.011488167,3
36561665,36561318,0.99997467,0.0013484894,-0.006218542,-0.0032002744,0.999934,6.113494e-12,6.7344026e-11,-0.011488167,3
36614031,36613744,0.9999558,0.0019859867,-0.008454574,-0.0036125204,0.999934,6.113494e-12,6.7344026e-11,-0.011488167,3
36661899,36661604,0.9999736,0.0025774806,-0.0059446027,-0.0033138436,0.999934,6.113494e-12,6.7344026e-11,-0.011488167,3
36713759,36713461,0.9999566,0.0020578036,-0.008213349,-0.0038925973,0.999934,6.113494e-12,6.7344026e-11,-0.011488167,3
36761714,36761414,0.9999632,0.0027251039,-0.0069970596,-0.0041640014,0.999934,6.113494e-12,6.7344026e-11,-0.011488167,3
36813501,36813204,0.9999701,0.0009384152,-0.006507546,-0.0040839543,0.999934,6.113494e-12,6.7344026e-11,-0.011488167,3
36862539,36862244,0.99996,0.0021303575,-0.007924257,-0.0035805055,0.999934,6.113494e-12,6.7344026e-11,-0.011488167,3
36913858,36913559,0.99997914,0.0007024466,-0.0055823014,-0.0031833183,0.999934,6.113494e-12,6.7344026e-11,-0.011488167,3
36965747,36965452,0.9999714,0.00041048107,-0.0069687124,-0.0029292915,0.999934,6.113494e-12,6.7344026e-11,-0.011488167,3
37013534,37013246,0.99996096,0.0024216112,-0.0077689956,-0.00346441,0.999934,6.113494e-12,6.7344026e-11,-0.011488167,3
37062503,37062209,0.9999523,0.00073014194,-0.008954057,-0.0038372863,0.999934,6.113494e-12,6.7344026e-11,-0.011488167,3
37110441,37110138,0.9999396,0.0007366864,-0.010062407,-0.0043754475,0.999934,6.113494e-12,6.7344026e-11,-0.011488167,3
37162275,37161985,0.99993426,0.0010897006,-0.010370676,-0.004774667,0.999934,6.113494e-12,6.7344026e-11,-0.011488167,3
37214028,37213741,0.99993426,0.0004749915,-0.010557373,-0.004460709,0.999934,6.113494e-12,6.7344026e-11,-0.011488167,3
37262038,37261747,0.9999368,0.0022575483,-0.01027029,-0.0039628427,0.999934,6.113494e-12,6.7344026e-11,-0.011488167,3
37313801,37313508,0.9999175,0.00050994795,-0.0119030215,-0.0048174644,0.999934,6.113494e-12,6.7344026e-11,-0.011488167,3
37361690,37361394,0.99991715,0.00043586805,-0.0115379775,-0.005700502,0.999934,6.113494e-12,6.7344026e-11,-0.011488167,3
37413521,37413225,0.9998973,0.0042052325,-0.012154918,-0.0063244333,0.999934,6.113494e-12,6.7344026e-11,-0.011488167,3
37462440,37462148,0.9999045,0.001441597,-0.012088354,-0.0065463455,0.999934,6.113494e-12,6.7344026e-11,-0.011488167,3
37514184,37513896,0.99987996,0.0033902142,-0.0137981875,-0.006193735,0.999934,6.113494e-12,6.7344026e-11,-0.011488167,3
37562180,37561892,0.999871,0.0031466917,-0.014545782,-0.006048011,0.999934,6.113494e-12,6.7344026e-11,-0.011488167,3
37613944,37613659,0.9998681,0.0024615196,-0.014857812,-0.0060937903,0.999934,6.113494e-12,6.7344026e-11,-0.011488167,3
37666164,37665879,0.9998727,0.002519301,-0.014745068,-0.0055491547,0.999934,6.113494e-12,6.7344026e-11,-0.011488167,3
37714257,37713970,0.9998598,0.0021763863,-0.015558809,-0.0058017774,0.999934,6.113494e-12,6.7344026e-11,-0.011488167,3
37762190,37761899,0.9998412,0.0017902723,-0.016968671,-0.0051351693,0.999934,6.113494e-12,6.7344026e-11,-0.011488167,3
37813918,37813624,0.9998533,0.0017082036,-0.01643343,-0.0045232237,0.999934,6.113494e-12,6.7344026e-11,-0.011488167,3
37865670,37865373,0.99982554,-0.00011944936,-0.018323038,-0.003644017,0.999934,6.113494e-12,6.7344026e-11,-0.011488167,3
37914480,37914187,0.99980855,0.00049012597,-0.01920319,-0.0037298226,0.999934,6.113494e-12,6.7344026e-11,-0.011488167,3
37962440,37962143,0.9998226,0.0005451033,-0.018306302,-0.0044080736,0.999934,6.113494e-12,6.7344026e-11,-0.011488167,3
38014564,38014276,0.99979156,9.450843e-05,-0.01993438,-0.0044288104,0.999934,6.113494e-12,6.7344026e-11,-0.011488167,3
38062072,38061773,0.9997727,0.00046644776,-0.020825565,-0.004552403,0.999934,6.113494e-12,6.7344026e-11,-0.011488167,3
38113933,38113648,0.999819,-0.0005768927,-0.018244226,-0.0053888806,0.999934,6.113494e-12,6.7344026e-11,-0.011488167,3
38161956,38161665,0.9998064,6.796822e-05,-0.018962214,-0.0052672997,0.999934,6.113494e-12,6.7344026e-11,-0.011488167,3
38213960,38213674,0.9998061,-0.0004698077,-0.01901151,-0.005126824,0.999934,6.113494e-12,6.7344026e-11,-0.011488167,3
38261760,38261343,0.99981,-0.00084908656,-0.018720305,-0.0053807804,0.999934,6.113494e-12,6.7344026e-11,-0.011488167,3
38310503,38310192,0.99977744,-0.0010586727,-0.020601297,-0.0044167843,0.999934,6.113494e-12,6.7344026e-11,-0.011488167,3
38366359,38366070,0.99980164,-0.003182276,-0.019060774,-0.0048165047,0.999934,6.113494e-12,6.7344026e-11,-0.011488167,3
38414103,38413817,0.99977976,-0.0032556965,-0.02011169,-0.005037677,0.999934,6.113494e-12,6.7344026e-11,-0.011488167,3
38462111,38461816,0.999761,-0.0047552474,-0.02080097,-0.0047826543,0.999934,6.113494e-12,6.7344026e-11,-0.011488167,3
38509965,38509665,0.999743,-0.0035876264,-0.021706654,-0.005482244,0.999934,6.113494e-12,6.7344026e-11,-0.011488167,3
38565782,38565482,0.9997425,-0.0029877664,-0.02172504,-0.005829582,0.999934,6.113494e-12,6.7344026e-11,-0.011488167,3
38613661,38613317,0.9997517,-0.0043019014,-0.021204889,-0.0053377044,0.999934,6.113494e-12,6.7344026e-11,-0.011488167,3
38661641,38661294,0.99972653,-0.002228326,-0.022729693,-0.00503823,0.999934,6.113494e-12,6.7344026e-11,-0.011488167,3
38714323,38714037,0.99974644,-0.002968235,-0.02194739,-0.0040710843,0.999934,6.113494e-12,6.7344026e-11,-0.011488167,3
38762429,38762133,0.99971807,-0.002837858,-0.023244543,-0.00394963,0.999934,6.113494e-12,6.7344026e-11,-0.011488167,3
38814091,38813805,0.9996895,-0.0022724855,-0.024510132,-0.003865532,0.999934,6.113494e-12,6.7344026e-11,-0.011488167,3
38862012,38861720,0.9996824,-0.0026203014,-0.02463723,-0.0046207956,0.999934,6.113494e-12,6.7344026e-11,-0.011488167,3
38913902,38913605,0.9996492,-0.0008569446,-0.025922138,-0.005374961,0.999934,6.113494e-12,6.7344026e-11,-0.011488167,3
38961864,38961395,0.9996546,-0.0014512932,-0.025570374,-0.005901114,0.999934,6.113494e-12,6.7344026e-11,-0.011488167,3
39013540,39013254,0.99960315,-0.0013404349,-0.027394045,-0.0064276927,0.999934,6.113494e-12,6.7344026e-11,-0.011488167,3
