timestamp,timestamp_sample,ref_timestamp,ref_lat,ref_lon,x,y,z,delta_xy[0],delta_xy[1],delta_z,vx,vy,vz,z_deriv,delta_vxy[0],delta_vxy[1],delta_vz,ax,ay,az,heading,delta_heading,ref_alt,dist_bottom,eph,epv,evh,evv,vxy_max,vz_max,hagl_min,hagl_max,xy_valid,z_valid,v_xy_valid,v_z_valid,xy_reset_counter,z_reset_counter,vxy_reset_counter,vz_reset_counter,heading_reset_counter,xy_global,z_global,dist_bottom_valid,dist_bottom_sensor_bitfield
8221260,8217008,0,nan,nan,5.0580393e-06,-3.6198558e-06,-1.8733058e-07,0.0,0.0,0.0,0.0012297772,-0.0011654019,-0.0001880958,-0.00018273639,0.0016646442,-0.0008497321,0.0,-0.09927665,-0.09441355,-0.062484063,0.059568956,0.05962174,nan,0.10000664,0.70622146,3.5000029,7.071068,0.4500181,inf,inf,inf,inf,0,1,0,1,1,0,1,0,1,0,0,1,2
8229578,8228931,0,nan,nan,2.768045e-05,-7.2773855e-06,3.14315e-05,0.0,0.0,0.0,0.0032230532,0.00092476147,0.0057723084,0.0057867607,0.0016646442,-0.0008497321,0.0,0.25397918,0.22426037,0.46337518,0.05917099,0.05962174,nan,0.1,0.7097526,3.5000114,7.071089,0.45004514,inf,inf,inf,inf,0,1,0,1,1,0,1,0,1,0,0,1,2
8317266,8316546,0,nan,nan,0.00038506015,0.00024860507,0.1079898,0.0,0.0,0.0,0.006755386,0.0036948046,0.017632043,0.12279461,0.0016646442,-0.0008497321,0.0,-0.01733472,-0.03922935,0.014206093,0.059872326,0.05962174,nan,0.65382683,0.95067334,2.0208514,7.072409,0.45056158,inf,inf,inf,inf,0,1,0,1,1,0,1,0,1,0,0,1,2
8421200,8420316,0,nan,nan,0.0008184763,0.0010761779,0.33599558,0.0,0.0,0.0,0.012700204,0.013640036,0.028124943,0.34202623,0.0016646442,-0.0008497321,0.0,0.14589421,0.09699831,-0.20315196,0.056515843,0.05962174,nan,0.7632247,0.6409804,1.5659493,4.225126,0.45196304,inf,inf,inf,inf,0,1,0,1,1,0,1,0,1,0,0,1,2
8521057,8520346,0,nan,nan,0.002540918,0.0019924755,0.6008273,0.0,0.0,0.0,0.020366084,0.0074873264,0.0415543,0.5769846,0.0016646442,-0.0008497321,0.0,-0.15982814,0.009385736,-0.17330745,0.0556544,0.05962174,nan,0.4587775,0.9637329,1.3247429,4.2346683,0.45414826,inf,inf,inf,inf,0,1,0,1,1,0,1,0,1,0,0,1,2
8621185,8620361,0,nan,nan,0.0051428494,0.002250462,0.79112214,0.0,0.0,0.0,0.0287409,0.003301373,0.053829435,0.7181946,0.0016646442,-0.0008497321,0.0,-0.06531066,0.038482487,0.17833216,0.054729026,0.05962174,nan,0.40330428,0.6257797,1.1703696,2.4308977,0.4570483,inf,inf,inf,inf,0,1,0,1,1,0,1,0,1,0,0,1,2
8721774,8721049,0,nan,nan,0.007185304,0.0021865193,0.9267835,0.0,0.0,0.0,0.024935579,0.0074428087,0.0751122,0.80075485,0.0016646442,-0.0008497321,0.0,0.28736797,0.0173023,0.4600432,0.05682049,0.05962174,nan,0.28478056,0.8251456,1.0615926,2.4566357,0.46060398,inf,inf,inf,inf,0,1,0,1,1,0,1,0,1,0,0,1,2
8821546,8820763,0,nan,nan,0.009062929,0.0024227044,1.0284373,0.0,0.0,0.0,0.027719697,0.0128286565,0.0860246,0.8307649,0.0016646442,-0.0008497321,0.0,0.49714032,0.2099377,-0.011794699,0.056147054,0.05962174,nan,0.18341184,0.5856708,1.021431,1.6323895,0.465145,inf,inf,inf,inf,0,1,0,1,1,0,1,0,1,0,0,1,2
8923088,8922396,0,nan,nan,0.010203917,0.0030254493,1.1233017,0.0,0.0,0.0,0.030741433,0.012858055,0.0978369,0.85184556,0.0016646442,-0.0008497321,0.0,-0.025673531,0.28545305,0.103477634,0.057425894,0.05962174,nan,0.12836647,0.72100395,0.95117086,1.6852944,0.46992162,inf,inf,inf,inf,0,1,0,1,1,0,1,0,1,0,0,1,2
9018774,9018120,0,nan,nan,0.011880082,0.0037917432,1.1775,0.0,0.0,0.0,0.036450583,0.011008395,0.11432342,0.85116696,0.0016646442,-0.0008497321,0.0,0.20812008,0.2068126,0.26365954,0.05730198,0.05962174,nan,0.1,0.8389958,0.8944608,1.7394987,0.47380057,inf,inf,inf,inf,0,1,0,1,1,0,1,0,1,0,0,1,2
9116263,9115553,0,nan,nan,0.013651099,0.0045100525,1.2119241,0.0,0.0,0.0,0.042332612,0.013553373,0.13039364,0.8288919,0.0016646442,-0.0008497321,0.0,0.15475683,-0.1832325,-0.021643206,0.055973444,0.05962174,nan,0.1,0.6166528,0.8486104,1.3593354,0.47781113,inf,inf,inf,inf,0,1,0,1,1,0,1,0,1,0,0,1,2
9212572,9211937,0,nan,nan,0.01591102,0.005704881,1.227458,0.0,0.0,0.0,0.041104626,0.019327587,0.14285123,0.7820741,0.0016646442,-0.0008497321,0.0,0.11042893,0.049307656,0.34263548,0.05583969,0.05962174,nan,0.1,0.70758307,0.83393294,1.4622962,0.482987,inf,inf,inf,inf,0,1,0,1,1,0,1,0,1,0,0,1,2
9321253,9320574,0,nan,nan,0.01698842,0.0068928325,1.256426,0.0,0.0,0.0,0.038436692,0.01975081,0.14998046,0.73486954,0.0016646442,-0.0008497321,0.0,0.17614649,-0.039115474,0.41608587,0.058614165,0.05962174,nan,0.1,0.5725682,0.801995,1.3114724,0.48829088,inf,inf,inf,inf,0,1,0,1,1,0,1,0,1,0,0,1,2
9421660,9421001,0,nan,nan,0.018309964,0.00793153,1.2590793,0.0,0.0,0.0,0.0434164,0.021091763,0.16352029,0.6567473,0.0016646442,-0.0008497321,0.0,-0.2709352,0.26910973,-0.08043332,0.059723873,0.05962174,nan,0.1,0.6922443,0.76109153,1.5114697,0.49418706,inf,inf,inf,inf,0,1,0,1,1,0,1,0,1,0,0,1,2
9520883,9520240,0,nan,nan,0.018057985,0.008768331,1.2677083,0.0,0.0,0.0,0.04360119,0.028072655,0.16000003,0.5753219,0.0016646442,-0.0008497321,0.0,0.029733203,-0.033906627,-0.032031417,0.060847376,0.05962174,nan,0.1,0.59569824,0.74798226,1.3992125,0.50246924,inf,inf,inf,inf,0,1,0,1,1,0,1,0,1,0,0,1,2
9617683,9617032,0,nan,nan,0.019101607,0.010149106,1.2590547,0.0,0.0,0.0,0.052308273,0.029718654,0.15619628,0.49602684,0.0016646442,-0.0008497321,0.0,-0.0034299137,0.29635718,-0.021881677,0.062513255,0.05962174,nan,0.1,0.73887783,0.7395484,1.5903621,0.5106092,inf,inf,inf,inf,0,1,0,1,1,0,1,0,1,0,0,1,2
9717480,9716770,0,nan,nan,0.020288698,0.010935887,1.237109,0.0,0.0,0.0,0.060517266,0.029033897,0.15127842,0.42018119,0.0016646442,-0.0008497321,0.0,-0.051035736,0.19988847,0.1420528,0.060947232,0.05962174,nan,0.1,0.60445225,0.7326373,1.3962737,0.5173549,inf,inf,inf,inf,0,1,0,1,1,0,1,0,1,0,0,1,2
9817253,9816534,0,nan,nan,0.022580273,0.011388412,1.206411,0.0,0.0,0.0,0.061676268,0.018007882,0.15423158,0.35270745,0.0016646442,-0.0008497321,0.0,-0.035056617,-0.4168441,0.14233457,0.061794747,0.05962174,nan,0.1,0.73809665,0.7287347,1.5911417,0.523677,inf,inf,inf,inf,0,1,0,1,1,0,1,0,1,0,0,1,2
9917521,9916885,0,nan,nan,0.02478572,0.010775646,1.1806923,0.0,0.0,0.0,0.071621664,0.016984446,0.1535405,0.29578927,0.0016646442,-0.0008497321,0.0,0.26784438,-0.08848287,-0.14738631,0.06337699,0.05962174,nan,0.1,0.5887018,0.74081,1.3711395,0.5319795,inf,inf,inf,inf,0,1,0,1,1,0,1,0,1,0,0,1,2
10021290,10020587,0,nan,nan,0.027893234,0.010093287,1.1418632,0.0,0.0,0.0,0.073543295,0.015519881,0.15336314,0.23077434,0.0016646442,-0.0008497321,0.0,0.09677303,0.21488322,0.1383209,0.06307178,0.05962174,nan,0.1,0.70814294,0.7384522,1.5633036,0.5365319,inf,inf,inf,inf,0,1,0,1,1,0,1,0,1,0,0,1,2
10121006,10120363,0,nan,nan,0.029276367,0.0089788,1.1095188,0.0,0.0,0.0,0.072879866,0.009684424,0.14941867,0.17540227,0.0016646442,-0.0008497321,0.0,0.20242667,0.01399016,0.06937683,0.062492307,0.05962174,nan,0.1,0.58025354,0.7379863,1.3887453,0.5405939,inf,inf,inf,inf,0,1,0,1,1,0,1,0,1,0,0,1,2
10217935,10217285,0,nan,nan,0.03094026,0.0070408303,1.1002394,0.0,0.0,0.0,0.07958551,-0.0048244065,0.15228055,0.15638678,0.0016646442,-0.0008497321,0.0,0.14629008,-0.2989335,0.22565745,0.06394608,0.05962174,nan,0.1,0.70209485,0.73908,1.5754687,0.5441967,inf,inf,inf,inf,0,1,0,1,1,0,1,0,1,0,0,1,2
10321577,10320834,0,nan,nan,0.032303564,0.003582356,1.110493,0.0,0.0,0.0,0.07639216,-0.01885979,0.1642367,0.16452101,0.0016646442,-0.0008497321,0.0,0.16865477,0.15791093,0.43359277,0.06323635,0.05962174,nan,0.1,0.5796522,0.7410994,1.3811374,0.5470326,inf,inf,inf,inf,0,1,0,1,1,0,1,0,1,0,0,1,2
10421139,10420484,0,nan,nan,0.033538084,-0.0005870075,1.1271877,0.0,0.0,0.0,0.076084726,-0.023296947,0.17154796,0.17459837,0.0016646442,-0.0008497321,0.0,0.046990376,-0.20779465,-0.30892617,0.06397678,0.05962174,nan,0.11239076,0.7023654,0.74408484,1.5601287,0.549339,inf,inf,inf,inf,0,1,0,1,1,0,1,0,1,0,0,1,2
10513223,10512518,0,nan,nan,0.03360169,-0.0044624307,1.1689571,0.0,0.0,0.0,0.066651106,-0.035633698,0.18732764,0.21681786,0.0016646442,-0.0008497321,0.0,0.033584405,-0.26966953,0.17321075,0.06534443,0.05962174,nan,0.117655754,0.562421,0.7437894,1.3223404,0.5495406,inf,inf,inf,inf,0,1,0,1,1,0,1,0,1,0,0,1,2
10617318,10616683,0,nan,nan,0.031661384,-0.010340113,1.2030408,0.0,0.0,0.0,0.05742993,-0.0533653,0.20955364,0.24913362,0.0016646442,-0.0008497321,0.0,0.19092461,-0.008437386,0.4469728,0.06430731,0.05962174,nan,0.1,0.69243723,0.7514454,1.509707,0.5518144,inf,inf,inf,inf,0,1,0,1,1,0,1,0,1,0,0,1,2
10721102,10720395,0,nan,nan,0.029137487,-0.016623868,1.2386758,0.0,0.0,0.0,0.04555543,-0.07350135,0.22985505,0.27857906,0.0016646442,-0.0008497321,0.0,-0.14556988,-0.024083145,0.1826656,0.06325929,0.05962174,nan,0.1,0.5679464,0.7554009,1.2843179,0.5520006,inf,inf,inf,inf,0,1,0,1,1,0,1,0,1,0,0,1,2
10821977,10821247,0,nan,nan,0.026047574,-0.02337847,1.2971549,0.0,0.0,0.0,0.043048915,-0.081730664,0.27313283,0.3505813,0.0016646442,-0.0008497321,0.0,-0.15439086,-0.21555354,0.5338849,0.06442935,0.05962174,nan,0.20408487,0.6829564,0.7593262,1.4375718,0.5515551,inf,inf,inf,inf,0,1,0,1,1,0,1,0,1,0,0,1,2
10921620,10920887,0,nan,nan,0.022078311,-0.029417973,1.3672202,0.0,0.0,0.0,0.026486697,-0.09269852,0.3014709,0.41044897,0.0016646442,-0.0008497321,0.0,-0.24019526,-0.15845634,-0.10652539,0.06707998,0.05962174,nan,0.1,0.56223977,0.7632655,1.2339103,0.5505645,inf,inf,inf,inf,0,1,0,1,1,0,1,0,1,0,0,1,2
11021416,11020700,0,nan,nan,0.01731213,-0.03513637,1.3972102,0.0,0.0,0.0,0.014298666,-0.09752095,0.31734753,0.41280678,0.0016646442,-0.0008497321,0.0,-0.16292736,-0.17452629,0.42711022,0.066084184,0.05962174,nan,0.1,0.67251754,0.7862387,1.3718554,0.5570404,inf,inf,inf,inf,0,1,0,1,1,0,1,0,1,0,0,1,2
11120968,11120324,0,nan,nan,0.012055663,-0.03992106,1.4095391,0.0,0.0,0.0,0.004062227,-0.09572686,0.31321478,0.37867996,0.0016646442,-0.0008497321,0.0,0.015103804,-0.004336352,0.08983957,0.065881096,0.05962174,nan,0.1,0.5506588,0.78978264,1.1648057,0.5550639,inf,inf,inf,inf,0,1,0,1,1,0,1,0,1,0,0,1,2
11221763,11221105,0,nan,nan,0.006543486,-0.043915223,1.4197831,0.0,0.0,0.0,-0.0018897313,-0.10273269,0.31189597,0.34987372,0.0016646442,-0.0008497321,0.0,0.013274223,-0.101792715,0.54556435,0.06651733,0.05962174,nan,0.1,0.6547662,0.7930933,1.2983522,0.5527015,inf,inf,inf,inf,0,1,0,1,1,0,1,0,1,0,0,1,2
11321355,11320719,0,nan,nan,0.0017583644,-0.047306843,1.4431523,0.0,0.0,0.0,-0.007975613,-0.112802416,0.33127928,0.35829976,0.0016646442,-0.0008497321,0.0,0.010086111,-0.023522643,0.48555955,0.066760354,0.05962174,nan,0.1,0.54174834,0.79611176,1.1159369,0.54994273,inf,inf,inf,inf,0,1,0,1,1,0,1,0,1,0,0,1,2
11421242,11420582,0,nan,nan,-0.002530272,-0.050483834,1.4815806,0.0,0.0,0.0,-0.014471919,-0.11963768,0.33799818,0.36866453,0.0016646442,-0.0008497321,0.0,0.042357218,-0.19155055,0.59704244,0.066601455,0.05962174,nan,0.1,0.6411899,0.79837817,1.2395946,0.5465893,inf,inf,inf,inf,0,1,0,1,1,0,1,0,1,0,0,1,2
11521019,11520323,0,nan,nan,-0.0064465906,-0.053696085,1.5173075,0.0,0.0,0.0,-0.022254406,-0.124515526,0.3589174,0.38792628,0.0016646442,-0.0008497321,0.0,-0.04067505,-0.14559746,0.53571504,0.06559962,0.05962174,nan,0.1,0.5299789,0.80032384,1.0636997,0.5429362,inf,inf,inf,inf,0,1,0,1,1,0,1,0,1,0,0,1,2
11609805,11609161,0,nan,nan,-0.009733993,-0.055481415,1.5579689,0.0,0.0,0.0,-0.023328686,-0.12580405,0.387721,0.42231435,0.0016646442,-0.0008497321,0.0,-0.043866843,-0.21578781,-0.080023676,0.065445654,0.05962174,nan,0.1,0.61413497,0.7971899,1.1663713,0.53737366,inf,inf,inf,inf,0,1,0,1,1,0,1,0,1,0,0,1,2
11721310,11720666,0,nan,nan,-0.012460646,-0.057504002,1.5882691,0.0,0.0,0.0,-0.019500654,-0.11985305,0.40478167,0.42169082,0.0016646442,-0.0008497321,0.0,0.23745106,-0.29221657,0.043090276,0.065029345,0.05962174,nan,0.1,0.52158064,0.80239457,1.0218285,0.5344523,inf,inf,inf,inf,0,1,0,1,1,0,1,0,1,0,0,1,2
11821255,11820616,0,nan,nan,-0.013606222,-0.057536386,1.6317896,0.0,0.0,0.0,-0.012676609,-0.11371773,0.4204109,0.43923166,0.0016646442,-0.0008497321,0.0,-0.14246199,0.07012052,-0.033633564,0.06658613,0.05962174,nan,0.1,0.61204576,0.80255646,1.1312037,0.52971524,inf,inf,inf,inf,0,1,0,1,1,0,1,0,1,0,0,1,2
11920861,11920208,0,nan,nan,-0.013566614,-0.05719815,1.675849,0.0,0.0,0.0,-0.0075885844,-0.107081585,0.42514288,0.44419706,0.0016646442,-0.0008497321,0.0,-0.21928294,-0.10877785,0.020636428,0.06442081,0.05962174,nan,0.1,0.51503426,0.8024724,0.98629963,0.5248957,inf,inf,inf,inf,0,1,0,1,1,0,1,0,1,0,0,1,2
12017275,12016619,0,nan,nan,-0.01216225,-0.05488167,1.6994221,0.0,0.0,0.0,0.0012003174,-0.103881024,0.43135956,0.43135896,0.0016646442,-0.0008497321,0.0,0.026577815,-0.3867291,0.36480173,0.06673532,0.05962174,nan,0.1,0.60246134,0.8021629,1.0960655,0.52005565,inf,inf,inf,inf,0,1,0,1,1,0,1,0,1,0,0,1,2
12121144,12120384,0,nan,nan,-0.010283987,-0.053795792,1.7115664,0.0,0.0,0.0,0.0044477577,-0.09437143,0.42192736,0.3913123,0.0016646442,-0.0008497321,0.0,0.06924245,-0.24829729,0.3490117,0.06811166,0.05962174,nan,0.1,0.5059507,0.8012035,0.94584924,0.514898,inf,inf,inf,inf,0,1,0,1,1,0,1,0,1,0,0,1,2
12221947,12221228,0,nan,nan,-0.00783194,-0.050513666,1.7165811,0.0,0.0,0.0,0.0102629345,-0.08402657,0.41169026,0.3499564,0.0016646442,-0.0008497321,0.0,0.078782886,-0.009178497,0.40770325,0.06598844,0.05962174,nan,0.1,0.5895147,0.8000892,1.0486556,0.5097889,inf,inf,inf,inf,0,1,0,1,1,0,1,0,1,0,0,1,2
12317503,12316863,0,nan,nan,-0.0053144475,-0.046914496,1.7227697,0.0,0.0,0.0,0.010831025,-0.06350014,0.39925823,0.31442913,0.0016646442,-0.0008497321,0.0,0.07364463,0.3197025,0.09082665,0.06495975,0.05962174,nan,0.1,0.49573183,0.8202569,0.9119902,0.5138228,inf,inf,inf,inf,0,1,0,1,1,0,1,0,1,0,0,1,2
12421120,12420469,0,nan,nan,-0.0026702473,-0.039933063,1.7349365,0.0,0.0,0.0,0.016684232,-0.03305947,0.3981506,0.29665086,0.0016646442,-0.0008497321,0.0,-0.12612483,0.43241718,0.061204247,0.06346319,0.05962174,nan,0.1,0.57582015,0.8183334,1.001301,0.5084456,inf,inf,inf,inf,0,1,0,1,1,0,1,0,1,0,0,1,2
12520944,12520301,0,nan,nan,2.0848624e-05,-0.031849556,1.7424374,0.0,0.0,0.0,0.018566485,-0.008451166,0.38549826,0.26605505,0.0016646442,-0.0008497321,0.0,-0.09565939,0.047841124,0.36804646,0.061418306,0.05962174,nan,0.1,0.4887244,0.81632215,0.8797767,0.5031486,inf,inf,inf,inf,0,1,0,1,1,0,1,0,1,0,0,1,2
12621659,12621000,0,nan,nan,0.0020274995,-0.021027675,1.7195774,0.0,0.0,0.0,0.019768074,0.015411674,0.3646236,0.20064795,0.0016646442,-0.0008497321,0.0,-0.05878373,-0.006995247,-0.21697944,0.06308206,0.05962174,nan,0.1,0.56583804,0.81424224,0.9672906,0.49795088,inf,inf,inf,inf,0,1,0,1,1,0,1,0,1,0,0,1,2
12721296,12720660,0,nan,nan,0.004321645,-0.010516052,1.6980609,0.0,0.0,0.0,0.02361507,0.030060234,0.34394175,0.1441589,0.0016646442,-0.0008497321,0.0,-0.036705926,0.07919725,0.47408465,0.067358375,0.05962174,nan,0.1,0.4832654,0.8116773,0.85111976,0.4925941,inf,inf,inf,inf,0,1,0,1,1,0,1,0,1,0,0,1,2
12817326,12816680,0,nan,nan,0.006539187,0.0002699068,1.6879913,0.0,0.0,0.0,0.03518243,0.04776209,0.33320406,0.11628736,0.0016646442,-0.0008497321,0.0,-0.037872948,0.16544983,0.071872465,0.06774425,0.05962174,nan,0.1,0.5577208,0.8088941,0.9327685,0.48723975,inf,inf,inf,inf,0,1,0,1,1,0,1,0,1,0,0,1,2
12921945,12921273,0,nan,nan,0.009652304,0.010592373,1.6810299,0.0,0.0,0.0,0.034955785,0.05168247,0.32198367,0.09091564,0.0016646442,-0.0008497321,0.0,0.08529776,0.15870222,-0.13758501,0.07114738,0.05962174,nan,0.1,0.47855076,0.805927,0.82231146,0.48190853,inf,inf,inf,inf,0,1,0,1,1,0,1,0,1,0,0,1,2
13021158,13020511,0,nan,nan,0.011678281,0.019333642,1.6645857,0.0,0.0,0.0,0.038266305,0.061858453,0.30291995,0.05240746,0.0016646442,-0.0008497321,0.0,0.072688654,0.013647588,0.45882526,0.071912095,0.05962174,nan,0.1,0.55062944,0.80300426,0.89894956,0.4767203,inf,inf,inf,inf,0,1,0,1,1,0,1,0,1,0,0,1,2
13118087,13117313,0,nan,nan,0.014117531,0.027496012,1.6205634,0.0,0.0,0.0,0.041621547,0.07403738,0.265515,-0.0260057,0.0016646442,-0.0008497321,0.0,0.07034179,0.1120985,0.14711441,0.07193217,0.05962174,nan,0.1,0.4713633,0.79992163,0.7894303,0.47155008,inf,inf,inf,inf,0,1,0,1,1,0,1,0,1,0,0,1,2
13221654,13220998,0,nan,nan,0.016052004,0.034692366,1.5700709,0.0,0.0,0.0,0.046552267,0.08316716,0.22945173,-0.103292,0.0016646442,-0.0008497321,0.0,0.2425263,0.20417203,0.029225364,0.07308044,0.05962174,nan,0.1,0.5403974,0.79671276,0.8613458,0.4664166,inf,inf,inf,inf,0,1,0,1,1,0,1,0,1,0,0,1,0
13321543,13320708,0,nan,nan,0.018853644,0.041774347,1.5193846,0.0,0.0,0.0,0.05306239,0.094221786,0.19522509,-0.1685356,0.0016646442,-0.0008497321,0.0,-0.059554443,0.2584507,-0.07819289,0.07373542,0.05962174,nan,0.1,0.46557063,0.7933898,0.76081073,0.46131533,inf,inf,inf,inf,0,1,0,1,1,0,1,0,1,0,0,1,0
13421070,13420355,0,nan,nan,0.020719046,0.04689434,1.4797814,0.0,0.0,0.0,0.055044543,0.10029075,0.1743307,-0.20337741,0.0016646442,-0.0008497321,0.0,0.13467579,0.04634271,0.1450471,0.07273518,0.05962174,nan,0.1,0.53208137,0.7899804,0.82757044,0.4562663,inf,inf,inf,inf,0,1,0,1,1,0,1,0,1,0,0,1,0
13517626,13516921,0,nan,nan,0.023334924,0.052372046,1.4563317,0.0,0.0,0.0,0.057910845,0.10169235,0.15043837,-0.22168846,0.0016646442,-0.0008497321,0.0,0.034515265,0.18919276,-0.23392731,0.07310405,0.05962174,nan,0.1,0.60700256,0.7866832,0.8965045,0.4513685,inf,inf,inf,inf,0,1,0,1,1,0,1,0,1,0,0,1,0
13621287,13620651,0,nan,nan,0.024924845,0.056229327,1.4497086,0.0,0.0,0.0,0.062317777,0.115907244,0.14111365,-0.21002598,0.0016646442,-0.0008497321,0.0,0.15337414,0.43574917,-0.42764255,0.07423856,0.05962174,nan,0.1,0.5215206,0.8036969,0.7908317,0.454548,inf,inf,inf,inf,0,1,0,1,1,0,1,0,1,0,0,1,0
13721010,13720367,0,nan,nan,0.028139077,0.062021866,1.4425641,0.0,0.0,0.0,0.06914964,0.1289564,0.1330116,-0.1981688,0.0016646442,-0.0008497321,0.0,-0.10165461,-0.12589408,-0.39515144,0.075034924,0.05962174,nan,0.108784676,0.59295654,0.79999727,0.8549727,0.44958055,inf,inf,inf,inf,0,1,0,1,1,0,1,0,1,0,0,1,0
13817473,13816815,0,nan,nan,0.029390201,0.065243855,1.4502535,0.0,0.0,0.0,0.06933628,0.13434547,0.12513557,-0.17420222,0.0016646442,-0.0008497321,0.0,0.25951126,0.0014672844,-0.017103922,0.074822664,0.05962174,nan,0.1,0.51014644,0.79643536,0.75343144,0.4447571,inf,inf,inf,inf,0,1,0,1,1,0,1,0,1,0,0,1,0
13913174,13912533,0,nan,nan,0.03238605,0.07044595,1.4624879,0.0,0.0,0.0,0.07093738,0.13726832,0.11369158,-0.15477112,0.0016646442,-0.0008497321,0.0,0.1251449,0.3674288,-0.49261144,0.076611266,0.05962174,nan,0.12888896,0.570942,0.78914857,0.80861455,0.43888223,inf,inf,inf,inf,0,1,0,1,1,0,1,0,1,0,0,1,0
14018020,14017377,0,nan,nan,0.033245713,0.0727499,1.4650573,0.0,0.0,0.0,0.07029565,0.14323395,0.098697014,-0.14624465,0.0016646442,-0.0008497321,0.0,-0.09678909,-0.090270236,0.2328752,0.07856019,0.05962174,nan,0.11632967,0.501163,0.7891598,0.72459763,0.43521175,inf,inf,inf,inf,0,1,0,1,1,0,1,0,1,0,0,1,0
14117645,14116978,0,nan,nan,0.035837147,0.07828847,1.4474616,0.0,0.0,0.0,0.07051341,0.15052128,0.08094522,-0.16619118,0.0016646442,-0.0008497321,0.0,0.21249254,0.47161257,0.22084945,0.07945937,0.05962174,nan,0.1,0.5593897,0.7820577,0.7738007,0.4295532,inf,inf,inf,inf,0,1,0,1,1,0,1,0,1,0,0,1,0
14221359,14220718,0,nan,nan,0.035556164,0.07981976,1.4112457,0.0,0.0,0.0,0.065990105,0.15251058,0.05962242,-0.20104507,0.0016646442,-0.0008497321,0.0,0.11504198,0.21366234,0.23815922,0.07827625,0.05962174,nan,0.1,0.49374607,0.7820948,0.6972472,0.42601696,inf,inf,inf,inf,0,1,0,1,1,0,1,0,1,0,0,1,0
14325077,14324417,0,nan,nan,0.03618795,0.08347589,1.386122,0.0,0.0,0.0,0.0638204,0.15301621,0.05630929,-0.20328991,0.0016646442,-0.0008497321,0.0,0.039913815,0.21005155,0.20756015,0.079129875,0.05962174,nan,0.1,0.56269056,0.7820349,0.75099796,0.4224855,inf,inf,inf,inf,0,1,0,1,1,0,1,0,1,0,0,1,0
14421902,14421172,0,nan,nan,0.03546817,0.0847326,1.3806446,0.0,0.0,0.0,0.057507567,0.14799735,0.0452126,-0.19931422,0.0016646442,-0.0008497321,0.0,0.016697444,0.18642025,-0.058785193,-0.025249826,-0.10414876,nan,0.12744117,0.48432776,0.7748987,0.6420488,0.41693828,inf,inf,inf,inf,0,1,0,1,1,0,1,0,2,0,0,1,0
14521848,14521116,0,nan,nan,0.03535892,0.087402366,1.3696524,0.0,0.0,0.0,0.058600157,0.15277083,0.02623531,-0.20718141,0.0016646442,-0.0008497321,0.0,0.3613122,0.077054136,-0.2753524,-0.027452555,-0.10414876,nan,0.1,0.54036856,0.7712751,0.6470027,0.41245258,inf,inf,inf,inf,0,1,0,1,1,0,1,0,2,0,0,1,0
14621133,14620529,0,nan,nan,0.034265973,0.08664495,1.3652575,0.0,0.0,0.0,0.06709992,0.14675438,0.014519231,-0.1999798,0.0016646442,-0.0008497321,0.0,0.25898883,0.24699907,-0.42836782,-0.029535968,-0.10414876,nan,0.14089966,0.47002128,0.7678009,0.55067515,0.4080826,inf,inf,inf,inf,0,1,0,1,1,0,1,0,2,0,0,1,0
14721141,14720346,0,nan,nan,0.035334107,0.088071816,1.3593984,0.0,0.0,0.0,0.073885165,0.14760165,-0.0023652017,-0.20087837,0.0016646442,-0.0008497321,0.0,0.39466417,0.067372195,-0.20120564,-0.03112568,-0.10414876,nan,0.1,0.51780194,0.7641497,0.56639534,0.4036645,inf,inf,inf,inf,0,1,0,1,1,0,1,0,2,0,0,1,0
14822116,14821307,0,nan,nan,0.03567704,0.08684865,1.3180943,0.0,0.0,0.0,0.07026058,0.13961771,-0.03618862,-0.25291917,0.0016646442,-0.0008497321,0.0,0.25158185,-0.010360521,-0.17197236,-0.032074418,-0.10414876,nan,0.10068095,0.45365053,0.76065373,0.5043984,0.39936465,inf,inf,inf,inf,0,1,0,1,1,0,1,0,2,0,0,1,0
14917290,14916692,0,nan,nan,0.036951523,0.08708158,1.2859906,0.0,0.0,0.0,0.07268771,0.13808958,-0.06347512,-0.28463417,0.0016646442,-0.0008497321,0.0,0.27238292,0.020402964,-0.11620606,-0.030751731,-0.10414876,nan,0.1,0.4961738,0.7756754,0.53018314,0.4018764,inf,inf,inf,inf,0,1,0,1,1,0,1,0,2,0,0,1,0
15021597,15020967,0,nan,nan,0.038889702,0.08597827,1.2228388,0.0,0.0,0.0,0.08895349,0.13417217,-0.0985697,-0.35018462,0.0016646442,-0.0008497321,0.0,0.21112579,0.047213744,-0.039236266,-0.02595109,-0.10414876,nan,0.1,0.43949124,0.7719005,0.49475145,0.39749917,inf,inf,inf,inf,0,1,0,1,1,0,1,0,2,0,0,1,0
15117519,15116777,0,nan,nan,0.042449158,0.08580323,1.1544728,0.0,0.0,0.0,0.099867254,0.12803076,-0.12817162,-0.40868887,0.0016646442,-0.0008497321,0.0,0.34335846,0.24506223,0.13163455,-0.019770987,-0.10414876,nan,0.1,0.47964564,0.7682852,0.5297354,0.39324433,inf,inf,inf,inf,0,1,0,1,1,0,1,0,2,0,0,1,0
15217734,15217121,0,nan,nan,0.046317097,0.08533592,1.1037701,0.0,0.0,0.0,0.10206517,0.13323295,-0.15744701,-0.44597647,0.0016646442,-0.0008497321,0.0,0.16275729,0.47961432,0.25329292,-0.0182263,-0.10414876,nan,0.1,0.42593944,0.76140344,0.503316,0.3881362,inf,inf,inf,inf,0,1,0,1,1,0,1,0,2,0,0,1,0
15313260,15312656,0,nan,nan,0.05077922,0.08535493,1.0542377,0.0,0.0,0.0,0.1141201,0.1327953,-0.17071721,-0.46035236,0.0016646442,-0.0008497321,0.0,0.03289728,0.1021565,0.24497434,-0.01824436,-0.10414876,nan,0.121492505,0.46572202,0.75781727,0.5463185,0.38395777,inf,inf,inf,inf,0,1,0,1,1,0,1,0,2,0,0,1,0
15422027,15421287,0,nan,nan,0.055496953,0.08536478,1.0331676,0.0,0.0,0.0,0.11794518,0.14671662,-0.17783861,-0.43443525,0.0016646442,-0.0008497321,0.0,0.102245934,0.16681685,-0.2366414,-0.018877314,-0.10414876,nan,0.18122733,0.4239235,0.7575644,0.53113145,0.38072714,inf,inf,inf,inf,0,1,0,1,1,0,1,0,2,0,0,1,0
15521674,15521053,0,nan,nan,0.061276074,0.08819073,1.0004834,0.0,0.0,0.0,0.13202658,0.15546894,-0.19067422,-0.4341712,0.0016646442,-0.0008497321,0.0,0.12205366,0.1102442,0.273014,-0.018845636,-0.10414876,nan,0.13884401,0.46565172,0.7540788,0.57160723,0.37666383,inf,inf,inf,inf,0,1,0,1,1,0,1,0,2,0,0,1,0
15621414,15620799,0,nan,nan,0.066939875,0.090464845,0.9729505,0.0,0.0,0.0,0.14309585,0.16577998,-0.19650656,-0.42264068,0.0016646442,-0.0008497321,0.0,0.15442222,0.32345206,0.057537116,-0.018038236,-0.10414876,nan,0.18094331,0.42173076,0.75059074,0.5506864,0.37263006,inf,inf,inf,inf,0,1,0,1,1,0,1,0,2,0,0,1,0
15725361,15724641,0,nan,nan,0.073828004,0.09469524,0.95821506,0.0,0.0,0.0,0.1479039,0.16639322,-0.20409149,-0.40098292,0.0016646442,-0.0008497321,0.0,0.40839115,-0.032880824,0.015628714,-0.01840118,-0.10414876,nan,0.18354148,0.46551266,0.7470998,0.59246206,0.36862656,inf,inf,inf,inf,0,1,0,1,1,0,1,0,2,0,0,1,0
15818179,15817366,0,nan,nan,0.07914265,0.09722577,0.95148045,0.0,0.0,0.0,0.1574689,0.16943169,-0.21798187,-0.38367763,0.0016646442,-0.0008497321,0.0,0.28204495,0.30417502,-0.024790447,-0.019516531,-0.10414876,nan,0.24965173,0.4190723,0.7405616,0.56271267,0.36386013,inf,inf,inf,inf,0,1,0,1,1,0,1,0,2,0,0,1,0
15921772,15921154,0,nan,nan,0.084717155,0.09932668,0.9658867,0.0,0.0,0.0,0.16070674,0.17163108,-0.20877129,-0.32049978,0.0016646442,-0.0008497321,0.0,0.16534616,0.21730483,-0.21008824,-0.018867325,-0.10414876,nan,0.22363532,0.4694836,0.7402635,0.6104986,0.36077043,inf,inf,inf,inf,0,1,0,1,1,0,1,0,2,0,0,1,0
16021487,16020819,0,nan,nan,0.08996953,0.101229794,0.9595031,0.0,0.0,0.0,0.17090344,0.16333207,-0.21415478,-0.30177683,0.0016646442,-0.0008497321,0.0,0.15247434,-0.004099307,-0.4444435,-0.016862672,-0.10414876,nan,0.18177408,0.4255603,0.7369065,0.5720152,0.35690737,inf,inf,inf,inf,0,1,0,1,1,0,1,0,2,0,0,1,0
16121473,16120676,0,nan,nan,0.095155455,0.102206476,0.95746195,0.0,0.0,0.0,0.17785697,0.16520421,-0.22105882,-0.28196347,0.0016646442,-0.0008497321,0.0,0.026851464,0.5646886,0.051425774,-0.013254351,-0.10414876,nan,0.208354,0.4728159,0.73355037,0.60845494,0.35308152,inf,inf,inf,inf,0,1,0,1,1,0,1,0,2,0,0,1,0
16222078,16221342,0,nan,nan,0.09977059,0.10210386,0.9436798,0.0,0.0,0.0,0.18481512,0.16081014,-0.2267401,-0.2753236,0.0016646442,-0.0008497321,0.0,0.33398265,0.12340602,0.14308389,-0.008470524,-0.10414876,nan,0.15221477,0.42794928,0.7303198,0.56644034,0.34933525,inf,inf,inf,inf,0,1,0,1,1,0,1,0,2,0,0,1,0
16321651,16321033,0,nan,nan,0.104441114,0.10059093,0.9188472,0.0,0.0,0.0,0.19773224,0.14368944,-0.23476711,-0.28198054,0.0016646442,-0.0008497321,0.0,0.32144633,0.02626211,0.026444634,-0.0072575533,-0.10414876,nan,0.1542561,0.4756656,0.7432992,0.60009533,0.3510587,inf,inf,inf,inf,0,1,0,1,1,0,1,0,2,0,0,1,0
16421387,16420657,0,nan,nan,0.10892055,0.09747005,0.91973096,0.0,0.0,0.0,0.2017466,0.13641162,-0.22808829,-0.24867234,0.0016646442,-0.0008497321,0.0,0.13543783,0.27916297,-0.11621744,-0.0058764173,-0.10414876,nan,0.22560471,0.4294308,0.7397135,0.55075955,0.34719428,inf,inf,inf,inf,0,1,0,1,1,0,1,0,2,0,0,1,0
16513370,16512654,0,nan,nan,0.113346174,0.09396328,0.9418344,0.0,0.0,0.0,0.21044755,0.12478258,-0.21259776,-0.19092755,0.0016646442,-0.0008497321,0.0,0.0814511,-0.06496508,0.15762563,-0.006490949,-0.10414876,nan,0.26758248,0.47171882,0.73350286,0.57906413,0.34279644,inf,inf,inf,inf,0,1,0,1,1,0,1,0,2,0,0,1,0
16621971,16621357,0,nan,nan,0.11612034,0.087236896,0.9496301,0.0,0.0,0.0,0.20605037,0.112965256,-0.20128685,-0.15695632,0.0016646442,-0.0008497321,0.0,-0.1441284,-0.06071887,0.18463156,-0.0085077565,-0.10414876,nan,0.16119844,0.43215278,0.7358115,0.53142774,0.34043908,inf,inf,inf,inf,0,1,0,1,1,0,1,0,2,0,0,1,0
16713550,16712828,0,nan,nan,0.11862758,0.0824002,0.9554395,0.0,0.0,0.0,0.20116767,0.11046218,-0.19940175,-0.13779569,0.0016646442,-0.0008497321,0.0,-0.16432293,0.23160401,0.087190144,-0.0097918175,-0.10414876,nan,0.20137721,0.4734067,0.72950107,0.55370975,0.33605286,inf,inf,inf,inf,0,1,0,1,1,0,1,0,2,0,0,1,0
16817772,16817166,0,nan,nan,0.121417895,0.077699505,0.9505363,0.0,0.0,0.0,0.19102187,0.09893303,-0.20417899,-0.13600223,0.0016646442,-0.0008497321,0.0,0.2129071,0.29256445,-0.2449259,-0.0114244055,-0.10414876,nan,0.1478532,0.42469633,0.72583276,0.49954182,0.3322699,inf,inf,inf,inf,0,1,0,1,1,0,1,0,2,0,0,1,0
16921508,16920787,0,nan,nan,0.121044286,0.07207119,0.94957066,0.0,0.0,0.0,0.18048666,0.094724834,-0.19461247,-0.11628223,0.0016646442,-0.0008497321,0.0,-0.041464694,-0.046679005,-0.004439255,-0.0090192,-0.10414876,nan,0.22100341,0.46832004,0.72254586,0.52497286,0.32869938,inf,inf,inf,inf,0,1,0,1,1,0,1,0,2,0,0,1,0
17017195,17016592,0,nan,nan,0.118632525,0.06618941,0.97058916,0.0,0.0,0.0,0.16505538,0.08705224,-0.182639,-0.07628047,0.0016646442,-0.0008497321,0.0,-0.24358894,0.06594537,-0.24727778,-0.0075778617,-0.10414876,nan,0.27131426,0.42057782,0.7192569,0.47244793,0.32515192,inf,inf,inf,inf,0,1,0,1,1,0,1,0,2,0,0,1,0
17117877,17117267,0,nan,nan,0.11418105,0.059933364,1.0320575,0.0,0.0,0.0,0.14718711,0.077069014,-0.15300292,0.016823635,0.0016646442,-0.0008497321,0.0,-0.056681473,0.056834843,0.19521144,-0.004415757,-0.10414876,nan,0.30821466,0.4620449,0.7159758,0.4937787,0.3216448,inf,inf,inf,inf,0,1,0,1,1,0,1,0,2,0,0,1,0
17221357,17220695,0,nan,nan,0.11137595,0.055731602,1.0822476,0.0,0.0,0.0,0.14192984,0.070440166,-0.12668338,0.08590308,0.0016646442,-0.0008497321,0.0,0.06903848,0.25421435,0.0694299,-0.0036296207,-0.10414876,nan,0.24690497,0.41424084,0.71258926,0.44311133,0.31811327,inf,inf,inf,inf,0,1,0,1,1,0,1,0,2,0,0,1,0
17317792,17317173,0,nan,nan,0.106332816,0.050969303,1.1081556,0.0,0.0,0.0,0.13277763,0.06755877,-0.124363646,0.10185859,0.0016646442,-0.0008497321,0.0,-0.15153474,0.04583528,0.04263232,-0.001964448,-0.10414876,nan,0.17897701,0.44919816,0.72166246,0.46055287,0.31881553,inf,inf,inf,inf,0,1,0,1,1,0,1,0,2,0,0,1,0
17417335,17416734,0,nan,nan,0.10112605,0.047007304,1.1390146,0.0,0.0,0.0,0.12577216,0.06901254,-0.11474116,0.12583087,0.0016646442,-0.0008497321,0.0,0.11284696,0.05741013,0.18544044,-0.0019828393,-0.10414876,nan,0.17008638,0.4053292,0.71834296,0.4163823,0.31537384,inf,inf,inf,inf,0,1,0,1,1,0,1,0,2,0,0,1,0
17521354,17520683,0,nan,nan,0.092567526,0.041570723,1.1520123,0.0,0.0,0.0,0.116708696,0.06385551,-0.12594058,0.106896736,0.0016646442,-0.0008497321,0.0,-0.17322558,0.22237976,0.05305588,-0.0008742456,-0.10414876,nan,0.1,0.44573483,0.7031463,0.4357897,0.30804518,inf,inf,inf,inf,0,1,0,1,1,0,1,0,2,0,0,1,0
17621940,17621321,0,nan,nan,0.08786281,0.039020743,1.1296986,0.0,0.0,0.0,0.10422302,0.057241447,-0.13906825,0.057988312,0.0016646442,-0.0008497321,0.0,-0.2792954,0.12199748,-0.22902878,-0.0023040862,-0.10414876,nan,0.1,0.4020022,0.71454346,0.39241046,0.30925938,inf,inf,inf,inf,0,1,0,1,1,0,1,0,2,0,0,1,0
17717730,17717125,0,nan,nan,0.079874314,0.03543967,1.1096672,0.0,0.0,0.0,0.08096195,0.05849171,-0.14579344,0.022437017,0.0016646442,-0.0008497321,0.0,-0.05798546,-0.008281713,0.22412345,-0.0006759022,-0.10414876,nan,0.1,0.43654737,0.71131253,0.40849185,0.30595082,inf,inf,inf,inf,0,1,0,1,1,0,1,0,2,0,0,1,0
17821327,17820717,17780904,40.154030399999996,116.25936779999999,0.0013281854,-0.007849839,1.0989592,-0.06964624,-0.04098093,0.0,-0.044927955,0.009355149,0.07157679,0.21613584,-0.11193452,-0.047630668,0.22411458,-0.001091138,0.46735612,-0.48809436,-0.003232068,-0.10414876,50.7006,0.10760796,0.36389464,0.70058274,0.2718451,0.21863025,inf,inf,inf,inf,1,1,1,1,2,0,2,1,2,1,1,1,0
17921179,17920554,17780904,40.154030399999996,116.25936779999999,-0.0129711535,-0.010812064,1.1231712,-0.06964624,-0.04098093,0.0,-0.05025033,0.012889212,0.06651352,0.20590366,-0.11193452,-0.047630668,0.22411458,0.1840767,0.1546346,-0.20429224,-0.004787732,-0.10414876,50.7006,0.120137095,0.32445973,0.6746773,0.23010555,0.19697025,inf,inf,inf,inf,1,1,1,1,2,0,2,1,2,1,1,1,0
18021865,18021233,17780904,40.154030399999996,116.25936779999999,-0.024019474,-0.011969186,1.1384702,-0.06964624,-0.04098093,0.0,-0.05539595,0.012817583,0.06870896,0.19513693,-0.11193452,-0.047630668,0.22411458,0.03154022,-0.24581094,-0.15258637,-0.005667759,-0.10414876,50.7006,0.10439336,0.29639757,0.6519391,0.20498407,0.1808935,inf,inf,inf,inf,1,1,1,1,2,0,2,1,2,1,1,1,0
18121354,18120734,17780904,40.154030399999996,116.25936779999999,-0.03386651,-0.011738072,1.1527612,-0.06964624,-0.04098093,0.0,-0.057845924,0.01601215,0.057290036,0.17379822,-0.11193452,-0.047630668,0.22411458,-0.07577167,0.06667255,0.40886724,-0.005245262,-0.10414876,50.7006,0.1,0.27518722,0.6316537,0.1883856,0.16838138,inf,inf,inf,inf,1,1,1,1,2,0,2,1,2,1,1,1,0
18222084,18221466,17780904,40.154030399999996,116.25936779999999,-0.04178748,-0.007471067,1.1668521,-0.06964624,-0.04098093,0.0,-0.057068113,0.027399935,0.04379529,0.15291078,-0.11193452,-0.047630668,0.22411458,-0.02724105,0.18626738,-0.004535223,-0.0060991948,-0.10414876,50.7006,0.109065056,0.25890777,0.6136576,0.17873266,0.15843654,inf,inf,inf,inf,1,1,1,1,2,0,2,1,2,1,1,1,0
18321340,18320608,17780904,40.154030399999996,116.25936779999999,-0.045064487,-0.0017730054,1.1731392,-0.06964624,-0.04098093,0.0,-0.053885773,0.034017663,0.031537253,0.13135447,-0.11193452,-0.047630668,0.22411458,-0.06905756,-0.102748334,-0.31946617,-0.0047987206,-0.10414876,50.7006,0.1,0.24519168,0.5968462,0.17100415,0.15010567,inf,inf,inf,inf,1,1,1,1,2,0,2,1,2,1,1,1,0
18417746,18417116,17780904,40.154030399999996,116.25936779999999,-0.044985935,0.0047243168,1.1714472,-0.06964624,-0.04098093,0.0,-0.040690552,0.04259206,0.018691776,0.104311444,-0.11193452,-0.047630668,0.22411458,0.013027864,0.04179965,0.14323038,-0.0057171057,-0.10414876,50.7006,0.1,0.23382616,0.5896252,0.16652445,0.14320347,inf,inf,inf,inf,1,1,1,1,2,0,2,1,2,1,1,1,0
18517607,18516998,17780904,40.154030399999996,116.25936779999999,-0.042247288,0.0129556265,1.1655161,-0.06964624,-0.04098093,0.0,-0.03616773,0.04843638,-0.0065871105,0.06284769,-0.11193452,-0.047630668,0.22411458,-0.07416041,0.21927598,-0.049435396,-0.0059614535,-0.10414876,50.7006,0.10615778,0.2251196,0.567884,0.16759236,0.13741286,inf,inf,inf,inf,1,1,1,1,2,0,2,1,2,1,1,1,0
18621096,18620415,17780904,40.154030399999996,116.25936779999999,-0.039739706,0.020262038,1.1730751,-0.06964624,-0.04098093,0.0,-0.025518749,0.049383216,-0.017859114,0.053243272,-0.11193452,-0.047630668,0.22411458,-0.20732099,-0.0028782468,0.132309,-0.0057841777,-0.10414876,50.7006,0.10997796,0.2174816,0.555128,0.16681282,0.13245147,inf,inf,inf,inf,1,1,1,1,2,0,2,1,2,1,1,1,0
18713923,18713307,17780904,40.154030399999996,116.25936779999999,-0.037226737,0.026173456,1.1802019,-0.06964624,-0.04098093,0.0,-0.013684472,0.050431527,-0.026173117,0.047727127,-0.11193452,-0.047630668,0.22411458,-0.02753707,0.19574733,0.3985403,-0.005415687,-0.10414876,50.7006,0.120129704,0.21052282,0.5496252,0.16614324,0.12816593,inf,inf,inf,inf,1,1,1,1,2,0,2,1,2,1,1,1,0
18821193,18820498,17780904,40.154030399999996,116.25936779999999,-0.034866326,0.032859236,1.1963794,-0.06964624,-0.04098093,0.0,-0.009018813,0.04984373,-0.03032515,0.054076973,-0.11193452,-0.047630668,0.22411458,0.23208845,-0.2608507,-0.13258548,-0.003443424,-0.10414876,50.7006,0.14008117,0.20560287,0.5324261,0.17046061,0.12452149,inf,inf,inf,inf,1,1,1,1,2,0,2,1,2,1,1,1,0
18910105,18909484,17780904,40.154030399999996,116.25936779999999,-0.031731218,0.03775112,1.2070321,-0.06964624,-0.04098093,0.0,-0.0024061599,0.04650809,-0.041015197,0.049272154,-0.11193452,-0.047630668,0.22411458,-0.28405267,0.418348,-0.5918541,-0.0013690144,-0.10414876,50.7006,0.11477375,0.20035844,0.5277629,0.17051654,0.121306784,inf,inf,inf,inf,1,1,1,1,2,0,2,1,2,1,1,1,0
19017752,19017140,17780904,40.154030399999996,116.25936779999999,-0.028826855,0.042863127,1.2088491,-0.06964624,-0.04098093,0.0,-0.0015962438,0.05123569,-0.050399236,0.036738396,-0.11193452,-0.047630668,0.22411458,-0.13786396,0.14536011,-0.39707306,0.002278877,-0.10414876,50.7006,0.10920346,0.19694266,0.5183549,0.17292444,0.11872203,inf,inf,inf,inf,1,1,1,1,2,0,2,1,2,1,1,1,0
19121331,19120734,17780904,40.154030399999996,116.25936779999999,-0.027091997,0.04725845,1.2054352,-0.06964624,-0.04098093,0.0,0.006417304,0.048554514,-0.053275347,0.027025273,-0.11193452,-0.047630668,0.22411458,0.078731306,0.2224506,-0.06660241,0.0006708327,-0.10414876,50.7006,0.10320127,0.19346564,0.5091666,0.17383432,0.116304696,inf,inf,inf,inf,1,1,1,1,2,0,2,1,2,1,1,1,0
19225308,19224581,17780904,40.154030399999996,116.25936779999999,-0.024335172,0.050352883,1.2036194,-0.06964624,-0.04098093,0.0,0.008599712,0.046998437,-0.053603463,0.02239422,-0.11193452,-0.047630668,0.22411458,-0.023538632,0.004428992,-0.1771375,-8.815667e-05,-0.10414876,50.7006,0.10350478,0.19052894,0.50058466,0.17484947,0.11421615,inf,inf,inf,inf,1,1,1,1,2,0,2,1,2,1,1,1,0
19321989,19321255,17780904,40.154030399999996,116.25936779999999,-0.020634297,0.051353805,1.2118845,-0.06964624,-0.04098093,0.0,0.01313549,0.041285783,-0.05889078,0.022834983,-0.11193452,-0.047630668,0.22411458,0.043481197,-0.080607876,-0.006249449,-0.0025104524,-0.10414876,50.7006,0.1338985,0.18800512,0.492543,0.17591809,0.112404495,inf,inf,inf,inf,1,1,1,1,2,0,2,1,2,1,1,1,0
19417774,19417162,17780904,40.154030399999996,116.25936779999999,-0.01840321,0.05088358,1.2288517,-0.06964624,-0.04098093,0.0,0.0067893774,0.041090593,-0.06107498,0.034007113,-0.11193452,-0.047630668,0.22411458,0.06840822,0.21490836,-0.032132104,-0.001651298,-0.10414876,50.7006,0.15661192,0.18576032,0.48495817,0.17533602,0.11081709,inf,inf,inf,inf,1,1,1,1,2,0,2,1,2,1,1,1,0
19517485,19516768,17780904,40.154030399999996,116.25936779999999,-0.018544266,0.05007386,1.2400217,-0.06964624,-0.04098093,0.0,-0.0039215847,0.03291297,-0.056377765,0.045411024,-0.11193452,-0.047630668,0.22411458,-0.67525905,0.033541884,0.07367255,-0.0025595867,-0.10414876,50.7006,0.11816394,0.18380868,0.47781894,0.17489138,0.10944281,inf,inf,inf,inf,1,1,1,1,2,0,2,1,2,1,1,1,0
19618168,19617553,17780904,40.154030399999996,116.25936779999999,-0.019093718,0.0493772,1.2461685,-0.06964624,-0.04098093,0.0,-0.0016558502,0.028828967,-0.054455496,0.048059374,-0.11193452,-0.047630668,0.22411458,0.16777146,0.088100165,-0.2096618,-0.0038477827,-0.10414876,50.7006,0.12731707,0.1821151,0.47108865,0.17413647,0.10825632,inf,inf,inf,inf,1,1,1,1,2,0,2,1,2,1,1,1,0
19714364,19713703,17780904,40.154030399999996,116.25936779999999,-0.018323718,0.04972041,1.253578,-0.06964624,-0.04098093,0.0,-0.0033116848,0.032285202,-0.058391992,0.047024284,-0.11193452,-0.047630668,0.22411458,-0.3487774,-0.03934622,0.0076120514,-0.003500338,-0.10414876,50.7006,0.12274277,0.17985712,0.46424258,0.17147207,0.106980756,inf,inf,inf,inf,1,1,1,1,2,0,2,1,2,1,1,1,0
19817770,19817099,17780904,40.154030399999996,116.25936779999999,-0.016573044,0.050647367,1.2624428,-0.06964624,-0.04098093,0.0,0.0006230238,0.036507625,-0.05631547,0.05190644,-0.11193452,-0.047630668,0.22411458,-0.12502193,0.2193565,0.14892633,-0.00043225748,-0.10414876,50.7006,0.14069021,0.17861655,0.45826295,0.17189279,0.10612084,inf,inf,inf,inf,1,1,1,1,2,0,2,1,2,1,1,1,0
19925304,19924704,17780904,40.154030399999996,116.25936779999999,-0.015220687,0.05069344,1.2764596,-0.06964624,-0.04098093,0.0,0.0043445434,0.024469404,-0.06217439,0.052450538,-0.11193452,-0.047630668,0.22411458,-0.054555032,-0.17816222,-0.2686384,0.0010496762,-0.10414876,50.7006,0.117816806,0.17837358,0.45311838,0.17244077,0.1056617,inf,inf,inf,inf,1,1,1,1,2,0,2,1,2,1,1,1,0
20021790,20021180,17780904,40.154030399999996,116.25936779999999,-0.0145000415,0.050125085,1.2930689,-0.06964624,-0.04098093,0.0,0.0018987897,0.018998547,-0.059807803,0.06392899,-0.11193452,-0.047630668,0.22411458,0.06622847,-0.049202286,0.29295176,0.0003951641,-0.10414876,50.7006,0.14531863,0.17746246,0.4477781,0.17120756,0.10505347,inf,inf,inf,inf,1,1,1,1,2,0,2,1,2,1,1,1,0
20121784,20120875,17780904,40.154030399999996,116.25936779999999,-0.013809186,0.04889964,1.3098656,-0.06964624,-0.04098093,0.0,-0.0013586119,0.0035119518,-0.055043507,0.07675806,-0.11193452,-0.047630668,0.22411458,-0.23857145,-0.14576136,-0.24449013,-0.001504367,-0.10414876,50.7006,0.12488723,0.17666401,0.44270447,0.16952886,0.10454214,inf,inf,inf,inf,1,1,1,1,2,0,2,1,2,1,1,1,0
20221263,20220657,17780904,40.154030399999996,116.25936779999999,-0.014332987,0.046554644,1.3190688,-0.06964624,-0.04098093,0.0,-0.0067089167,-0.00640325,-0.05647263,0.07588624,-0.11193452,-0.047630668,0.22411458,-0.23204784,-0.07999221,0.019813726,-0.0015706772,-0.10414876,50.7006,0.11335707,0.17595874,0.4413555,0.16814142,0.10432815,inf,inf,inf,inf,1,1,1,1,2,0,2,1,2,1,1,1,0
20310070,20309456,17780904,40.154030399999996,116.25936779999999,-0.016188301,0.044000383,1.3233172,-0.06964624,-0.04098093,0.0,-0.01783987,-0.01358759,-0.051234666,0.07745191,-0.11193452,-0.047630668,0.22411458,-0.1665256,0.12085843,0.14436913,-0.0024212718,-0.10414876,50.7006,0.10690653,0.17440124,0.43611643,0.16550806,0.10366792,inf,inf,inf,inf,1,1,1,1,2,0,2,1,2,1,1,1,0
20417841,20417122,17780904,40.154030399999996,116.25936779999999,-0.017812118,0.039903145,1.3265338,-0.06964624,-0.04098093,0.0,-0.024374813,-0.036400232,-0.05448846,0.069973275,-0.11193452,-0.047630668,0.22411458,-0.25627026,-0.3680503,0.2159812,-0.002755703,-0.10414876,50.7006,0.113992214,0.17378949,0.4316395,0.16315971,0.10336,inf,inf,inf,inf,1,1,1,1,2,0,2,1,2,1,1,1,0
20521472,20520867,17780904,40.154030399999996,116.25936779999999,-0.021132646,0.035110734,1.3345428,-0.06964624,-0.04098093,0.0,-0.030226493,-0.047446657,-0.04621121,0.076338395,-0.11193452,-0.047630668,0.22411458,0.05082967,-0.1269505,0.30092105,-0.004040208,-0.10414876,50.7006,0.10675132,0.17419372,0.4279582,0.16439031,0.10342849,inf,inf,inf,inf,1,1,1,1,2,0,2,1,2,1,1,1,0
20617250,20616645,17780904,40.154030399999996,116.25936779999999,-0.024923751,0.031663492,1.3359835,-0.06964624,-0.04098093,0.0,-0.03208785,-0.056165703,-0.039400328,0.07531264,-0.11193452,-0.047630668,0.22411458,-0.064605586,0.2908735,-6.646049e-05,-0.004040399,-0.10414876,50.7006,0.1,0.17371038,0.4239156,0.16233741,0.10322739,inf,inf,inf,inf,1,1,1,1,2,0,2,1,2,1,1,1,0
20717882,20717272,17780904,40.154030399999996,116.25936779999999,-0.027954672,0.029348562,1.3362298,-0.06964624,-0.04098093,0.0,-0.042316057,-0.051068306,-0.03731483,0.07062756,-0.11193452,-0.047630668,0.22411458,-0.048570365,0.040393434,0.23919527,-0.0067365654,-0.10414876,50.7006,0.1,0.17248644,0.41953972,0.15960242,0.10278093,inf,inf,inf,inf,1,1,1,1,2,0,2,1,2,1,1,1,0
20817867,20817243,17780904,40.154030399999996,116.25936779999999,-0.031520117,0.028206805,1.3356366,-0.06964624,-0.04098093,0.0,-0.04904043,-0.057180446,-0.024482688,0.074522436,-0.11193452,-0.047630668,0.22411458,0.21751124,0.06645781,0.25197113,-0.009830922,-0.10414876,50.7006,0.1,0.17209023,0.41586724,0.15879564,0.10264826,inf,inf,inf,inf,1,1,1,1,2,0,2,1,2,1,1,1,0
20917537,20916823,17780904,40.154030399999996,116.25936779999999,-0.03461288,0.026453946,1.3327357,-0.06964624,-0.04098093,0.0,-0.056983594,-0.06283137,-0.019595988,0.0684414,-0.11193452,-0.047630668,0.22411458,-0.09132812,-0.07932189,0.60591847,-0.009306338,-0.10414876,50.7006,0.1,0.17182994,0.41239145,0.15758646,0.10256283,inf,inf,inf,inf,1,1,1,1,2,0,2,1,2,1,1,1,0
21022076,21021475,17780904,40.154030399999996,116.25936779999999,-0.037253685,0.025559215,1.336719,-0.06964624,-0.04098093,0.0,-0.060987663,-0.06335073,-0.01383082,0.06928569,-0.11193452,-0.047630668,0.22411458,-0.19127361,-0.01403026,0.19675496,-0.010260602,-0.10414876,50.7006,0.1,0.17239982,0.40961608,0.15763453,0.10278784,inf,inf,inf,inf,1,1,1,1,2,0,2,1,2,1,1,1,0
21117562,21116764,17780904,40.154030399999996,116.25936779999999,-0.038464487,0.025896141,1.3439201,-0.06964624,-0.04098093,0.0,-0.05428684,-0.069030225,-0.0060272096,0.077171445,-0.11193452,-0.047630668,0.22411458,0.08165055,-0.23431922,0.2171714,-0.010844768,-0.10414876,50.7006,0.10472834,0.17132661,0.40589762,0.1548758,0.10243049,inf,inf,inf,inf,1,1,1,1,2,0,2,1,2,1,1,1,0
21218031,21217427,17780904,40.154030399999996,116.25936779999999,-0.039064992,0.026219033,1.3547143,-0.06964624,-0.04098093,0.0,-0.043500513,-0.070052244,-0.015997682,0.069081396,-0.11193452,-0.047630668,0.22411458,0.28635532,-0.33769658,0.10528974,-0.007950243,-0.10414876,50.7006,0.11153591,0.17193894,0.40341794,0.15541974,0.10268277,inf,inf,inf,inf,1,1,1,1,2,0,2,1,2,1,1,1,0
21322074,21321301,17780904,40.154030399999996,116.25936779999999,-0.03941858,0.023910807,1.3628607,-0.06964624,-0.04098093,0.0,-0.03200636,-0.070847206,-0.014404042,0.07101561,-0.11193452,-0.047630668,0.22411458,0.05365911,-0.11854952,-0.20574348,-0.0036033331,-0.10414876,50.7006,0.1,0.1717172,0.40316024,0.15343,0.10283345,inf,inf,inf,inf,1,1,1,1,2,0,2,1,2,1,1,1,0
21421553,21420828,17780904,40.154030399999996,116.25936779999999,-0.03782946,0.022693254,1.3621551,-0.06964624,-0.04098093,0.0,-0.024089169,-0.07251018,-0.004593999,0.072240055,-0.11193452,-0.047630668,0.22411458,-0.3822522,-0.312781,0.04444564,-0.0056883204,-0.10414876,50.7006,0.1,0.17151344,0.40032688,0.15286171,0.10278497,inf,inf,inf,inf,1,1,1,1,2,0,2,1,2,1,1,1,0
21522114,21521513,17780904,40.154030399999996,116.25936779999999,-0.035588745,0.021540305,1.3610883,-0.06964624,-0.04098093,0.0,-0.018885208,-0.07487731,0.00086718187,0.0693652,-0.11193452,-0.047630668,0.22411458,-0.045853946,-0.12260157,0.36956453,-0.005882095,-0.10414876,50.7006,0.1,0.17132817,0.3976174,0.1518696,0.10273798,inf,inf,inf,inf,1,1,1,1,2,0,2,1,2,1,1,1,0
21622158,21621390,17780904,40.154030399999996,116.25936779999999,-0.03366064,0.01990895,1.36539,-0.06964624,-0.04098093,0.0,-0.016726127,-0.07743962,0.006422461,0.07213537,-0.11193452,-0.047630668,0.22411458,-0.049165007,-0.31984273,0.41621256,-0.006176346,-0.10414876,50.7006,0.1,0.1711606,0.39503214,0.15105806,0.10269175,inf,inf,inf,inf,1,1,1,1,2,0,2,1,2,1,1,1,0
21722202,21721602,17780904,40.154030399999996,116.25936779999999,-0.031805634,0.018345557,1.3736902,-0.06964624,-0.04098093,0.0,-0.0119804265,-0.07450177,0.014407771,0.08088899,-0.11193452,-0.047630668,0.22411458,-0.08047885,-0.174704,0.12796701,-0.007498973,-0.10414876,50.7006,0.10617244,0.17094105,0.39254957,0.15011925,0.10262515,inf,inf,inf,inf,1,1,1,1,2,0,2,1,2,1,1,1,0
21822060,21821323,17780904,40.154030399999996,116.25936779999999,-0.03085201,0.019210044,1.3850206,-0.06964624,-0.04098093,0.0,-0.012488986,-0.07435316,0.010170861,0.080272496,-0.11193452,-0.047630668,0.22411458,-0.043528583,-0.2478422,-0.10924296,-0.008937848,-0.10414876,50.7006,0.116351604,0.17081381,0.39018002,0.14924097,0.10257136,inf,inf,inf,inf,1,1,1,1,2,0,2,1,2,1,1,1,0
21921571,21920958,17780904,40.154030399999996,116.25936779999999,-0.02956075,0.020382069,1.3967041,-0.06964624,-0.04098093,0.0,0.009813567,-0.07684723,0.019220823,0.09225701,-0.11193452,-0.047630668,0.22411458,0.23995909,-0.20119621,-0.15947886,-0.007438632,-0.10414876,50.7006,0.10153651,0.17070645,0.38791642,0.14910986,0.10251293,inf,inf,inf,inf,1,1,1,1,2,0,2,1,2,1,1,1,0
22017393,22016796,17780904,40.154030399999996,116.25936779999999,-0.02775772,0.021028098,1.4074364,-0.06964624,-0.04098093,0.0,0.015092764,-0.07682353,0.016407793,0.09057143,-0.11193452,-0.047630668,0.22411458,0.051409833,-0.2415628,-0.29131,-0.0075905295,-0.10414876,50.7006,0.1,0.17060268,0.3857398,0.14798453,0.10244525,inf,inf,inf,inf,1,1,1,1,2,0,2,1,2,1,1,1,0
22118063,22117461,17780904,40.154030399999996,116.25936779999999,-0.02744041,0.021327827,1.4118139,-0.06964624,-0.04098093,0.0,0.013843204,-0.073119946,0.0071458328,0.076974034,-0.11193452,-0.047630668,0.22411458,0.39659494,0.17335178,-0.11752742,-0.0065105176,-0.10414876,50.7006,0.1,0.17042884,0.38364616,0.14717256,0.10235232,inf,inf,inf,inf,1,1,1,1,2,0,2,1,2,1,1,1,0
22218256,22217145,17780904,40.154030399999996,116.25936779999999,-0.024876356,0.01976465,1.405957,-0.06964624,-0.04098093,0.0,0.021585789,-0.076619,-0.0005624406,0.056940164,-0.11193452,-0.047630668,0.22411458,0.29979602,-0.19698533,-0.10982505,-0.0047407,-0.10414876,50.7006,0.1,0.16941135,0.38107222,0.14540456,0.10195148,inf,inf,inf,inf,1,1,1,1,2,0,2,1,2,1,1,1,0
22317584,22316801,17780904,40.154030399999996,116.25936779999999,-0.022016205,0.01917304,1.3923434,-0.06964624,-0.04098093,0.0,0.033755746,-0.07035882,0.00025387935,0.03903854,-0.11193452,-0.047630668,0.22411458,0.38003367,0.0054540336,0.31176028,-0.005666073,-0.10414876,50.7006,0.1,0.16932647,0.3791583,0.14555635,0.10186181,inf,inf,inf,inf,1,1,1,1,2,0,2,1,2,1,1,1,0
22422288,22421696,17780904,40.154030399999996,116.25936779999999,-0.01749013,0.019481951,1.3792086,-0.06964624,-0.04098093,0.0,0.045131117,-0.06206816,-0.015776062,0.0070839943,-0.11193452,-0.047630668,0.22411458,0.15045829,0.17376857,0.20692393,-0.005569899,-0.10414876,50.7006,0.1,0.17003848,0.3778792,0.14587656,0.10204093,inf,inf,inf,inf,1,1,1,1,2,0,2,1,2,1,1,1,0
22522077,22521346,17780904,40.154030399999996,116.25936779999999,-0.012979467,0.019832293,1.3705717,-0.06964624,-0.04098093,0.0,0.048405215,-0.06133208,-0.013349143,0.000644369,-0.11193452,-0.047630668,0.22411458,-0.029346062,0.005133575,0.12552986,-0.0076751127,-0.10414876,50.7006,0.1,0.16991404,0.37610132,0.14458649,0.101911165,inf,inf,inf,inf,1,1,1,1,2,0,2,1,2,1,1,1,0
22617888,22617161,17780904,40.154030399999996,116.25936779999999,-0.008901002,0.021806762,1.369755,-0.06964624,-0.04098093,0.0,0.055693474,-0.053104077,-0.012669161,0.0007131612,-0.11193452,-0.047630668,0.22411458,0.21359232,-0.28819057,0.057393443,-0.00696036,-0.10414876,50.7006,0.1,0.16979598,0.3765599,0.1439722,0.101950645,inf,inf,inf,inf,1,1,1,1,2,0,2,1,2,1,1,1,0
22725566,22724776,17780904,40.154030399999996,116.25936779999999,-0.005562284,0.026378741,1.3634584,-0.06964624,-0.04098093,0.0,0.056251064,-0.04292992,-0.014992462,-0.007151822,-0.11193452,-0.047630668,0.22411458,0.34182802,0.024495931,-0.27010447,-0.00786971,-0.10414876,50.7006,0.1,0.17046787,0.37330377,0.14394914,0.101894215,inf,inf,inf,inf,1,1,1,1,2,0,2,1,2,1,1,1,0
22807493,22806711,17780904,40.154030399999996,116.25936779999999,-0.0018119093,0.027584692,1.3609346,-0.06964624,-0.04098093,0.0,0.066963755,-0.04775052,-0.024977243,-0.018343078,-0.11193452,-0.047630668,0.22411458,0.19409898,0.008890455,-0.38376585,-0.007429166,-0.10414876,50.7006,0.1,0.1748649,0.37398478,0.14866595,0.103149064,inf,inf,inf,inf,1,1,1,1,2,0,2,1,2,1,1,1,0
22921299,22920580,17780904,40.154030399999996,116.25936779999999,0.0039568995,0.026698535,1.3583832,-0.06964624,-0.04098093,0.0,0.060271107,-0.054366354,-0.030591436,-0.023272973,-0.11193452,-0.047630668,0.22411458,-0.33881468,0.020943208,0.03499298,-0.007088357,-0.10414876,50.7006,0.1,0.17122747,0.37228322,0.1442295,0.10201908,inf,inf,inf,inf,1,1,1,1,2,0,2,1,2,1,1,1,0
23017501,23016737,17780904,40.154030399999996,116.25936779999999,0.008002161,0.027291043,1.3520272,-0.06964624,-0.04098093,0.0,0.07084729,-0.064241864,-0.0445317,-0.039708406,-0.11193452,-0.047630668,0.22411458,0.07739469,-0.31374142,0.09203533,-0.0044250647,-0.10414876,50.7006,0.1,0.16964488,0.36969724,0.14633046,0.100253,inf,inf,inf,inf,1,1,1,1,2,0,2,1,2,1,1,1,0
23122071,23121354,17780904,40.154030399999996,116.25936779999999,0.008958295,0.03372586,1.3302525,-0.06964624,-0.04098093,0.0,0.075845994,-0.06361117,-0.03760144,-0.049818296,-0.11193452,-0.047630668,0.22411458,0.26678833,-0.32723925,-0.036269307,-0.00037034057,-0.10414876,50.7006,0.1,0.16468473,0.36535057,0.14318697,0.095948406,inf,inf,inf,inf,1,1,1,1,2,0,2,1,2,1,1,1,0
23217583,23216970,17780904,40.154030399999996,116.25936779999999,0.009172385,0.03768968,1.3066388,-0.06964624,-0.04098093,0.0,0.08449745,-0.06234917,-0.043072127,-0.07216802,-0.11193452,-0.047630668,0.22411458,-0.09699555,-0.096889175,-0.09286662,0.002504955,-0.10414876,50.7006,0.1,0.16655369,0.36714208,0.14216793,0.09456334,inf,inf,inf,inf,1,1,1,1,2,0,2,1,2,1,1,1,0
23318122,23317514,17780904,40.154030399999996,116.25936779999999,0.010063019,0.039750993,1.2854031,-0.06964624,-0.04098093,0.0,0.09167767,-0.06501393,-0.05882615,-0.09953852,-0.11193452,-0.047630668,0.22411458,0.17336926,-0.08792852,0.29967532,0.0026521268,-0.10414876,50.7006,0.1,0.16829064,0.36691126,0.14128825,0.09327178,inf,inf,inf,inf,1,1,1,1,2,0,2,1,2,1,1,1,0
23418405,23417672,17780904,40.154030399999996,116.25936779999999,0.01236226,0.0396271,1.2694545,-0.06964624,-0.04098093,0.0,0.09477601,-0.067237414,-0.058232244,-0.10376307,-0.11193452,-0.047630668,0.22411458,0.05075053,-0.000825651,0.24317774,0.0010759409,-0.10414876,50.7006,0.1,0.16988467,0.36666566,0.14079672,0.092208825,inf,inf,inf,inf,1,1,1,1,2,0,2,1,2,1,1,1,0
23523674,23522735,17780904,40.154030399999996,116.25936779999999,0.015303688,0.037435737,1.2592843,-0.06964624,-0.04098093,0.0,0.09770363,-0.074231915,-0.05870142,-0.104540296,-0.11193452,-0.047630668,0.22411458,0.17316115,-0.2743288,0.18926561,-0.0013628419,-0.10414876,50.7006,0.1,0.16971612,0.36540884,0.13875547,0.091120705,inf,inf,inf,inf,1,1,1,1,2,0,2,1,2,1,1,1,0
23617471,23616864,17780904,40.154030399999996,116.25936779999999,0.020881759,0.033885114,1.2511094,-0.06964624,-0.04098093,0.0,0.10426777,-0.07680874,-0.05786652,-0.10200229,-0.11193452,-0.047630668,0.22411458,0.18343097,-0.25926512,-0.05714585,-0.0025163863,-0.10414876,50.7006,0.10107136,0.17583361,0.3669478,0.14487496,0.091836564,inf,inf,inf,inf,1,1,1,1,2,0,2,1,2,1,1,1,0
23722093,23721493,17780904,40.154030399999996,116.25936779999999,0.02367658,0.036328617,1.2439623,-0.06964624,-0.04098093,0.0,0.11343605,-0.074368894,-0.062027246,-0.10047868,-0.11193452,-0.047630668,0.22411458,0.14457794,-0.04475822,0.3104174,-0.0006052581,-0.10414876,50.7006,0.10340083,0.17836814,0.3652097,0.14885081,0.09096427,inf,inf,inf,inf,1,1,1,1,2,0,2,1,2,1,1,1,0
23818266,23817541,17780904,40.154030399999996,116.25936779999999,0.028041568,0.0370829,1.2399375,-0.06964624,-0.04098093,0.0,0.11874764,-0.0695511,-0.054790895,-0.087508,-0.11193452,-0.047630668,0.22411458,0.14258613,-0.021560863,-0.3049396,-0.0009610796,-0.10414876,50.7006,0.10683823,0.17805827,0.36596733,0.14624725,0.08976242,inf,inf,inf,inf,1,1,1,1,2,0,2,1,2,1,1,1,0
23913814,23913070,17780904,40.154030399999996,116.25936779999999,0.033670273,0.03704274,1.2360917,-0.06964624,-0.04098093,0.0,0.12605348,-0.073683925,-0.062444277,-0.08998586,-0.11193452,-0.047630668,0.22411458,0.028687634,-0.18914258,-0.39834288,-0.00057051465,-0.10414876,50.7006,0.10580778,0.17777468,0.36473972,0.14471166,0.0886061,inf,inf,inf,inf,1,1,1,1,2,0,2,1,2,1,1,1,0
24021513,24020782,17780904,40.154030399999996,116.25936779999999,0.039736398,0.035988994,1.2290674,-0.06964624,-0.04098093,0.0,0.11758593,-0.07504127,-0.057718232,-0.08230759,-0.11193452,-0.047630668,0.22411458,0.2139012,-0.17570832,0.49723524,-0.0024717378,-0.10414876,50.7006,0.10364139,0.17835231,0.36403477,0.1446225,0.087737806,inf,inf,inf,inf,1,1,1,1,2,0,2,1,2,1,1,1,0
24122326,24121601,17780904,40.154030399999996,116.25936779999999,0.044699848,0.034598965,1.2272214,-0.06964624,-0.04098093,0.0,0.11946643,-0.07310831,-0.06343324,-0.08124882,-0.11193452,-0.047630668,0.22411458,-0.002597136,-0.009866585,0.08948299,-0.0053838096,-0.10414876,50.7006,0.1130774,0.17802966,0.36286724,0.14350964,0.086947106,inf,inf,inf,inf,1,1,1,1,2,0,2,1,2,1,1,1,0
24221451,24220846,17780904,40.154030399999996,116.25936779999999,0.04784854,0.03186219,1.2271868,-0.06964624,-0.04098093,0.0,0.11826337,-0.0705812,-0.049148075,-0.059705533,-0.11193452,-0.047630668,0.22411458,0.24789773,-0.07705119,0.025939545,-0.0033504644,-0.10414876,50.7006,0.11476278,0.17774099,0.36172533,0.14291085,0.08631479,inf,inf,inf,inf,1,1,1,1,2,0,2,1,2,1,1,1,0
24321885,24321258,17780904,40.154030399999996,116.25936779999999,0.05030601,0.02911368,1.2275475,-0.06964624,-0.04098093,0.0,0.122905895,-0.077322505,-0.06222885,-0.065864414,-0.11193452,-0.047630668,0.22411458,0.15850791,-0.11697194,-0.1255188,-0.0029597161,-0.10414876,50.7006,0.11489165,0.17747733,0.3606179,0.14242674,0.08582898,inf,inf,inf,inf,1,1,1,1,2,0,2,1,2,1,1,1,0
24417848,24417099,17780904,40.154030399999996,116.25936779999999,0.05365916,0.026769977,1.2271075,-0.06964624,-0.04098093,0.0,0.12399499,-0.08386303,-0.06343966,-0.061081756,-0.11193452,-0.047630668,0.22411458,0.044780865,-0.23684342,0.1605245,-0.0044504544,-0.10414876,50.7006,0.11509395,0.1772299,0.35953844,0.14165795,0.08547733,inf,inf,inf,inf,1,1,1,1,2,0,2,1,2,1,1,1,0
24521542,24520819,17780904,40.154030399999996,116.25936779999999,0.056826122,0.024312079,1.2262119,-0.06964624,-0.04098093,0.0,0.12814856,-0.070047714,-0.06279445,-0.054913033,-0.11193452,-0.047630668,0.22411458,0.26698032,0.039938726,0.10700988,-0.0047650193,-0.10414876,50.7006,0.11584365,0.17692874,0.35848528,0.14094375,0.085238606,inf,inf,inf,inf,1,1,1,1,2,0,2,1,2,1,1,1,0
24617495,24616889,17780904,40.154030399999996,116.25936779999999,0.055471286,0.025085684,1.2249029,-0.06964624,-0.04098093,0.0,0.12442387,-0.0691221,-0.058889378,-0.04763335,-0.11193452,-0.047630668,0.22411458,1.1237484e-05,0.03046707,-0.025518287,-0.0057181683,-0.10414876,50.7006,0.110885024,0.17673081,0.35745797,0.14041394,0.085117154,inf,inf,inf,inf,1,1,1,1,2,0,2,1,2,1,1,1,0
24722222,24721504,17780904,40.154030399999996,116.25936779999999,0.05468398,0.02475847,1.2194096,-0.06964624,-0.04098093,0.0,0.123077884,-0.06832811,-0.06812167,-0.057104636,-0.11193452,-0.047630668,0.22411458,0.19276962,-0.20430431,-0.065452516,-0.004307577,-0.10414876,50.7006,0.1,0.17654194,0.3564602,0.13983443,0.08509598,inf,inf,inf,inf,1,1,1,1,2,0,2,1,2,1,1,1,0
24821943,24821257,17780904,40.154030399999996,116.25936779999999,0.052112058,0.024281584,1.2115679,-0.06964624,-0.04098093,0.0,0.11893307,-0.069134064,-0.07889617,-0.06957811,-0.11193452,-0.047630668,0.22411458,0.13121316,-0.12116605,-0.16068298,-0.0033734292,-0.10414876,50.7006,0.10576713,0.1763791,0.35548156,0.13971674,0.08516209,inf,inf,inf,inf,1,1,1,1,2,0,2,1,2,1,1,1,0
24921807,24920988,17780904,40.154030399999996,116.25936779999999,0.049849268,0.024798766,1.2046068,-0.06964624,-0.04098093,0.0,0.11861589,-0.062123183,-0.07287018,-0.064232886,-0.11193452,-0.047630668,0.22411458,0.35326946,-0.103479035,0.66368574,-0.0053205453,-0.10414876,50.7006,0.11272824,0.17622182,0.35453093,0.14442816,0.08530781,inf,inf,inf,inf,1,1,1,1,2,0,2,1,2,1,1,1,0
25018304,25017684,17780904,40.154030399999996,116.25936779999999,0.044986006,0.025896396,1.1984152,-0.06964624,-0.04098093,0.0,0.11294968,-0.053129904,-0.07030386,-0.06175094,-0.11193452,-0.047630668,0.22411458,0.3731094,-0.07020449,0.038401913,-0.0044842213,-0.10414876,50.7006,0.11891985,0.17609449,0.35542607,0.15201195,0.08564317,inf,inf,inf,inf,1,1,1,1,2,0,2,1,2,1,1,1,0
25122008,25121387,17780904,40.154030399999996,116.25936779999999,0.040557202,0.025086142,1.1917468,-0.06964624,-0.04098093,0.0,0.10903872,-0.05801529,-0.06555399,-0.057296894,-0.11193452,-0.047630668,0.22411458,0.012788149,0.021750845,-0.4589758,-0.00079106435,-0.10414876,50.7006,0.12558818,0.17591877,0.35450563,0.16066341,0.08590505,inf,inf,inf,inf,1,1,1,1,2,0,2,1,2,1,1,1,0
25221649,25221007,17780904,40.154030399999996,116.25936779999999,0.03487496,0.025740193,1.1872898,-0.06964624,-0.04098093,0.0,0.10102577,-0.05124262,-0.064574964,-0.05526511,-0.11193452,-0.047630668,0.22411458,0.04508191,-0.13299268,-0.32158655,0.00078697177,-0.10414876,50.7006,0.13004518,0.1757789,0.35360718,0.16933116,0.08621859,inf,inf,inf,inf,1,1,1,1,2,0,2,1,2,1,1,1,0
25318368,25317627,17780904,40.154030399999996,116.25936779999999,0.030682847,0.027632965,1.1809269,-0.06964624,-0.04098093,0.0,0.09366568,-0.051458925,-0.0416864,-0.034554634,-0.11193452,-0.047630668,0.22411458,-0.11376642,-0.10803173,0.6600679,0.0005768383,-0.10414876,50.7006,0.13640809,0.17567083,0.35273483,0.17635003,0.08657482,inf,inf,inf,inf,1,1,1,1,2,0,2,1,2,1,1,1,0
25421904,25421272,17780904,40.154030399999996,116.25936779999999,0.026356999,0.028806942,1.1740264,-0.06964624,-0.04098093,0.0,0.09185005,-0.04662649,-0.037321176,-0.033535026,-0.11193452,-0.047630668,0.22411458,0.23504946,0.15674134,-0.9650051,0.0007718887,-0.10414876,50.7006,0.14330864,0.17559421,0.3518837,0.18181686,0.086966045,inf,inf,inf,inf,1,1,1,1,2,0,2,1,2,1,1,1,0
25513724,25512988,17780904,40.154030399999996,116.25936779999999,0.023179004,0.031686228,1.1688706,-0.06964624,-0.04098093,0.0,0.08101419,-0.04149655,-0.029346732,-0.028333645,-0.11193452,-0.047630668,0.22411458,-0.0023996325,-0.36311966,-0.16451101,-0.001910817,-0.10414876,50.7006,0.14846444,0.17461321,0.35061836,0.18353905,0.08715842,inf,inf,inf,inf,1,1,1,1,2,0,2,1,2,1,1,1,0
25610369,25609639,17780904,40.154030399999996,116.25936779999999,0.018492494,0.03521225,1.1648141,-0.06964624,-0.04098093,0.0,0.06359443,-0.036932666,-0.025286615,-0.025703296,-0.11193452,-0.047630668,0.22411458,-0.029208785,0.0137688415,0.24404421,-0.0030232058,-0.10414876,50.7006,0.1525209,0.17457148,0.3498104,0.18568674,0.08759321,inf,inf,inf,inf,1,1,1,1,2,0,2,1,2,1,1,1,0
25718142,25717406,17780904,40.154030399999996,116.25936779999999,0.017599387,0.035804622,1.1608814,-0.06964624,-0.04098093,0.0,0.046733905,-0.02948236,-0.04731333,-0.047779407,-0.11193452,-0.047630668,0.22411458,-0.28757456,0.20878527,0.004098316,-0.005981151,-0.10414876,50.7006,0.15645361,0.17083125,0.3490528,0.17854935,0.087210506,inf,inf,inf,inf,1,1,1,1,2,0,2,1,2,1,1,1,0
