timestamp,noutputs,output[0],output[1],output[2],output[3],output[4],output[5],output[6],output[7],output[8],output[9],output[10],output[11],output[12],output[13],output[14],output[15]
7596967,12,900.0,900.0,900.0,900.0,900.0,900.0,900.0,900.0,900.0,900.0,900.0,900.0,0.0,0.0,0.0,0.0
7601026,12,900.0,900.0,900.0,900.0,900.0,900.0,900.0,900.0,900.0,900.0,900.0,900.0,0.0,0.0,0.0,0.0
7696238,12,900.0,900.0,900.0,900.0,900.0,900.0,900.0,900.0,900.0,900.0,900.0,900.0,0.0,0.0,0.0,0.0
7800957,12,900.0,900.0,900.0,900.0,900.0,900.0,900.0,900.0,900.0,900.0,900.0,900.0,0.0,0.0,0.0,0.0
7896247,12,900.0,900.0,900.0,900.0,900.0,900.0,900.0,900.0,900.0,900.0,900.0,900.0,0.0,0.0,0.0,0.0
7997127,12,900.0,900.0,900.0,900.0,900.0,900.0,900.0,900.0,900.0,900.0,900.0,900.0,0.0,0.0,0.0,0.0
8096840,12,900.0,900.0,900.0,900.0,900.0,900.0,900.0,900.0,900.0,900.0,900.0,900.0,0.0,0.0,0.0,0.0
8197060,12,900.0,900.0,900.0,900.0,900.0,900.0,900.0,900.0,900.0,900.0,900.0,900.0,0.0,0.0,0.0,0.0
8300563,12,900.0,900.0,900.0,900.0,900.0,900.0,900.0,900.0,900.0,900.0,900.0,900.0,0.0,0.0,0.0,0.0
8396308,12,900.0,900.0,900.0,900.0,900.0,900.0,900.0,900.0,900.0,900.0,900.0,900.0,0.0,0.0,0.0,0.0
8500143,12,900.0,900.0,900.0,900.0,900.0,900.0,900.0,900.0,900.0,900.0,900.0,900.0,0.0,0.0,0.0,0.0
8596394,12,900.0,900.0,900.0,900.0,900.0,900.0,900.0,900.0,900.0,900.0,900.0,900.0,0.0,0.0,0.0,0.0
8700185,12,900.0,900.0,900.0,900.0,900.0,900.0,900.0,900.0,900.0,900.0,900.0,900.0,0.0,0.0,0.0,0.0
8796868,12,900.0,900.0,900.0,900.0,900.0,900.0,900.0,900.0,900.0,900.0,900.0,900.0,0.0,0.0,0.0,0.0
8898281,12,900.0,900.0,900.0,900.0,900.0,900.0,900.0,900.0,900.0,900.0,900.0,900.0,0.0,0.0,0.0,0.0
9000394,12,900.0,900.0,900.0,900.0,900.0,900.0,900.0,900.0,900.0,900.0,900.0,900.0,0.0,0.0,0.0,0.0
9097100,12,900.0,900.0,900.0,900.0,900.0,900.0,900.0,900.0,900.0,900.0,900.0,900.0,0.0,0.0,0.0,0.0
9200886,12,900.0,900.0,900.0,900.0,900.0,900.0,900.0,900.0,900.0,900.0,900.0,900.0,0.0,0.0,0.0,0.0
9297421,12,900.0,900.0,900.0,900.0,900.0,900.0,900.0,900.0,900.0,900.0,900.0,900.0,0.0,0.0,0.0,0.0
9400151,12,900.0,900.0,900.0,900.0,900.0,900.0,900.0,900.0,900.0,900.0,900.0,900.0,0.0,0.0,0.0,0.0
9496372,12,900.0,900.0,900.0,900.0,900.0,900.0,900.0,900.0,900.0,900.0,900.0,900.0,0.0,0.0,0.0,0.0
9596123,12,900.0,900.0,900.0,900.0,900.0,900.0,900.0,900.0,900.0,900.0,900.0,900.0,0.0,0.0,0.0,0.0
9700869,12,900.0,900.0,900.0,900.0,900.0,900.0,900.0,900.0,900.0,900.0,900.0,900.0,0.0,0.0,0.0,0.0
9796746,12,900.0,900.0,900.0,900.0,900.0,900.0,900.0,900.0,900.0,900.0,900.0,900.0,0.0,0.0,0.0,0.0
9901037,12,900.0,900.0,900.0,900.0,900.0,900.0,900.0,900.0,900.0,900.0,900.0,900.0,0.0,0.0,0.0,0.0
9996784,12,900.0,900.0,900.0,900.0,900.0,900.0,900.0,900.0,900.0,900.0,900.0,900.0,0.0,0.0,0.0,0.0
10100471,12,900.0,900.0,900.0,900.0,900.0,900.0,900.0,900.0,900.0,900.0,900.0,900.0,0.0,0.0,0.0,0.0
10197317,12,900.0,900.0,900.0,900.0,900.0,900.0,900.0,900.0,900.0,900.0,900.0,900.0,0.0,0.0,0.0,0.0
10296903,12,900.0,900.0,900.0,900.0,900.0,900.0,900.0,900.0,900.0,900.0,900.0,900.0,0.0,0.0,0.0,0.0
10400635,12,900.0,900.0,900.0,900.0,900.0,900.0,900.0,900.0,900.0,900.0,900.0,900.0,0.0,0.0,0.0,0.0
10496445,12,900.0,900.0,900.0,900.0,900.0,900.0,900.0,900.0,900.0,900.0,900.0,900.0,0.0,0.0,0.0,0.0
10600774,12,900.0,900.0,900.0,900.0,900.0,900.0,900.0,900.0,900.0,900.0,900.0,900.0,0.0,0.0,0.0,0.0
10696579,12,900.0,900.0,900.0,900.0,900.0,900.0,900.0,900.0,900.0,900.0,900.0,900.0,0.0,0.0,0.0,0.0
10800262,12,900.0,900.0,900.0,900.0,900.0,900.0,900.0,900.0,900.0,900.0,900.0,900.0,0.0,0.0,0.0,0.0
10897059,12,900.0,900.0,900.0,900.0,900.0,900.0,900.0,900.0,900.0,900.0,900.0,900.0,0.0,0.0,0.0,0.0
10996793,12,900.0,900.0,900.0,900.0,900.0,900.0,900.0,900.0,900.0,900.0,900.0,900.0,0.0,0.0,0.0,0.0
11100425,12,900.0,900.0,900.0,900.0,900.0,900.0,900.0,900.0,900.0,900.0,900.0,900.0,0.0,0.0,0.0,0.0
11197288,12,900.0,900.0,900.0,900.0,900.0,900.0,900.0,900.0,900.0,900.0,900.0,900.0,0.0,0.0,0.0,0.0
11300922,12,900.0,900.0,900.0,900.0,900.0,900.0,900.0,900.0,900.0,900.0,900.0,900.0,0.0,0.0,0.0,0.0
11396731,12,900.0,900.0,900.0,900.0,900.0,900.0,900.0,900.0,900.0,900.0,900.0,900.0,0.0,0.0,0.0,0.0
11500335,12,900.0,900.0,900.0,900.0,900.0,900.0,900.0,900.0,900.0,900.0,900.0,900.0,0.0,0.0,0.0,0.0
11597221,12,900.0,900.0,900.0,900.0,900.0,900.0,900.0,900.0,900.0,900.0,900.0,900.0,0.0,0.0,0.0,0.0
11696848,12,900.0,900.0,900.0,900.0,900.0,900.0,900.0,900.0,900.0,900.0,900.0,900.0,0.0,0.0,0.0,0.0
11800544,12,900.0,900.0,900.0,900.0,900.0,900.0,900.0,900.0,900.0,900.0,900.0,900.0,0.0,0.0,0.0,0.0
11896284,12,900.0,900.0,900.0,900.0,900.0,900.0,900.0,900.0,900.0,900.0,900.0,900.0,0.0,0.0,0.0,0.0
12000835,12,900.0,900.0,900.0,900.0,900.0,900.0,900.0,900.0,900.0,900.0,900.0,900.0,0.0,0.0,0.0,0.0
12096595,12,900.0,900.0,900.0,900.0,900.0,900.0,900.0,900.0,900.0,900.0,900.0,900.0,0.0,0.0,0.0,0.0
12200414,12,900.0,900.0,900.0,900.0,900.0,900.0,900.0,900.0,900.0,900.0,900.0,900.0,0.0,0.0,0.0,0.0
12296970,12,900.0,900.0,900.0,900.0,900.0,900.0,900.0,900.0,900.0,900.0,900.0,900.0,0.0,0.0,0.0,0.0
12396968,12,900.0,900.0,900.0,900.0,900.0,900.0,900.0,900.0,900.0,900.0,900.0,900.0,0.0,0.0,0.0,0.0
12500290,12,900.0,900.0,900.0,900.0,900.0,900.0,900.0,900.0,900.0,900.0,900.0,900.0,0.0,0.0,0.0,0.0
12597157,12,900.0,900.0,900.0,900.0,900.0,900.0,900.0,900.0,900.0,900.0,900.0,900.0,0.0,0.0,0.0,0.0
12700859,12,900.0,900.0,900.0,900.0,900.0,900.0,900.0,900.0,900.0,900.0,900.0,900.0,0.0,0.0,0.0,0.0
12796682,12,900.0,900.0,900.0,900.0,900.0,900.0,900.0,900.0,900.0,900.0,900.0,900.0,0.0,0.0,0.0,0.0
12896479,12,900.0,900.0,900.0,900.0,900.0,900.0,900.0,900.0,900.0,900.0,900.0,900.0,0.0,0.0,0.0,0.0
12996718,12,900.0,900.0,900.0,900.0,900.0,900.0,900.0,900.0,900.0,900.0,900.0,900.0,0.0,0.0,0.0,0.0
13096339,12,900.0,900.0,900.0,900.0,900.0,900.0,900.0,900.0,900.0,900.0,900.0,900.0,0.0,0.0,0.0,0.0
13201060,12,900.0,900.0,900.0,900.0,900.0,900.0,900.0,900.0,900.0,900.0,900.0,900.0,0.0,0.0,0.0,0.0
13296883,12,900.0,900.0,900.0,900.0,900.0,900.0,900.0,900.0,900.0,900.0,900.0,900.0,0.0,0.0,0.0,0.0
13400502,12,900.0,900.0,900.0,900.0,900.0,900.0,900.0,900.0,900.0,900.0,900.0,900.0,0.0,0.0,0.0,0.0
13497085,12,900.0,900.0,900.0,900.0,900.0,900.0,900.0,900.0,900.0,900.0,900.0,900.0,0.0,0.0,0.0,0.0
13596761,12,900.0,900.0,900.0,900.0,900.0,900.0,900.0,900.0,900.0,900.0,900.0,900.0,0.0,0.0,0.0,0.0
13696528,12,900.0,900.0,900.0,900.0,900.0,900.0,900.0,900.0,900.0,900.0,900.0,900.0,0.0,0.0,0.0,0.0
13796806,12,900.0,900.0,900.0,900.0,900.0,900.0,900.0,900.0,900.0,900.0,900.0,900.0,0.0,0.0,0.0,0.0
13900513,12,900.0,900.0,900.0,900.0,900.0,900.0,900.0,900.0,900.0,900.0,900.0,900.0,0.0,0.0,0.0,0.0
13997420,12,900.0,900.0,900.0,900.0,900.0,900.0,900.0,900.0,900.0,900.0,900.0,900.0,0.0,0.0,0.0,0.0
14097131,12,900.0,900.0,900.0,900.0,900.0,900.0,900.0,900.0,900.0,900.0,900.0,900.0,0.0,0.0,0.0,0.0
14196922,12,900.0,900.0,900.0,900.0,900.0,900.0,900.0,900.0,900.0,900.0,900.0,900.0,0.0,0.0,0.0,0.0
14300493,12,900.0,900.0,900.0,900.0,900.0,900.0,900.0,900.0,900.0,900.0,900.0,900.0,0.0,0.0,0.0,0.0
14397348,12,900.0,900.0,900.0,900.0,900.0,900.0,900.0,900.0,900.0,900.0,900.0,900.0,0.0,0.0,0.0,0.0
14497100,12,900.0,900.0,900.0,900.0,900.0,900.0,900.0,900.0,900.0,900.0,900.0,900.0,0.0,0.0,0.0,0.0
14600753,12,900.0,900.0,900.0,900.0,900.0,900.0,900.0,900.0,900.0,900.0,900.0,900.0,0.0,0.0,0.0,0.0
14696544,12,900.0,900.0,900.0,900.0,900.0,900.0,900.0,900.0,900.0,900.0,900.0,900.0,0.0,0.0,0.0,0.0
14797315,12,900.0,900.0,900.0,900.0,900.0,900.0,900.0,900.0,900.0,900.0,900.0,900.0,0.0,0.0,0.0,0.0
14896750,12,900.0,900.0,900.0,900.0,900.0,900.0,900.0,900.0,900.0,900.0,900.0,900.0,0.0,0.0,0.0,0.0
14997242,12,900.0,900.0,900.0,900.0,900.0,900.0,900.0,900.0,900.0,900.0,900.0,900.0,0.0,0.0,0.0,0.0
15096969,12,900.0,900.0,900.0,900.0,900.0,900.0,900.0,900.0,900.0,900.0,900.0,900.0,0.0,0.0,0.0,0.0
15197418,12,900.0,900.0,900.0,900.0,900.0,900.0,900.0,900.0,900.0,900.0,900.0,900.0,0.0,0.0,0.0,0.0
15300734,12,900.0,900.0,900.0,900.0,900.0,900.0,900.0,900.0,900.0,900.0,900.0,900.0,0.0,0.0,0.0,0.0
15397444,12,900.0,900.0,900.0,900.0,900.0,900.0,900.0,900.0,900.0,900.0,900.0,900.0,0.0,0.0,0.0,0.0
15497246,12,900.0,900.0,900.0,900.0,900.0,900.0,900.0,900.0,900.0,900.0,900.0,900.0,0.0,0.0,0.0,0.0
15597096,12,900.0,900.0,900.0,900.0,900.0,900.0,900.0,900.0,900.0,900.0,900.0,900.0,0.0,0.0,0.0,0.0
15696872,12,900.0,900.0,900.0,900.0,900.0,900.0,900.0,900.0,900.0,900.0,900.0,900.0,0.0,0.0,0.0,0.0
15796517,12,900.0,900.0,900.0,900.0,900.0,900.0,900.0,900.0,900.0,900.0,900.0,900.0,0.0,0.0,0.0,0.0
15897285,12,900.0,900.0,900.0,900.0,900.0,900.0,900.0,900.0,900.0,900.0,900.0,900.0,0.0,0.0,0.0,0.0
16000850,12,900.0,900.0,900.0,900.0,900.0,900.0,900.0,900.0,900.0,900.0,900.0,900.0,0.0,0.0,0.0,0.0
16096595,12,900.0,900.0,900.0,900.0,900.0,900.0,900.0,900.0,900.0,900.0,900.0,900.0,0.0,0.0,0.0,0.0
16197387,12,900.0,900.0,900.0,900.0,900.0,900.0,900.0,900.0,900.0,900.0,900.0,900.0,0.0,0.0,0.0,0.0
16297200,12,900.0,900.0,900.0,900.0,900.0,900.0,900.0,900.0,900.0,900.0,900.0,900.0,0.0,0.0,0.0,0.0
16396892,12,900.0,900.0,900.0,900.0,900.0,900.0,900.0,900.0,900.0,900.0,900.0,900.0,0.0,0.0,0.0,0.0
16496680,12,900.0,900.0,900.0,900.0,900.0,900.0,900.0,900.0,900.0,900.0,900.0,900.0,0.0,0.0,0.0,0.0
16596690,12,900.0,900.0,900.0,900.0,900.0,900.0,900.0,900.0,900.0,900.0,900.0,900.0,0.0,0.0,0.0,0.0
16700714,12,900.0,900.0,900.0,900.0,900.0,900.0,900.0,900.0,900.0,900.0,900.0,900.0,0.0,0.0,0.0,0.0
16797049,12,900.0,900.0,900.0,900.0,900.0,900.0,900.0,900.0,900.0,900.0,900.0,900.0,0.0,0.0,0.0,0.0
16900850,12,900.0,900.0,900.0,900.0,900.0,900.0,900.0,900.0,900.0,900.0,900.0,900.0,0.0,0.0,0.0,0.0
16996560,12,900.0,900.0,900.0,900.0,900.0,900.0,900.0,900.0,900.0,900.0,900.0,900.0,0.0,0.0,0.0,0.0
17097241,12,900.0,900.0,900.0,900.0,900.0,900.0,900.0,900.0,900.0,900.0,900.0,900.0,0.0,0.0,0.0,0.0
17196875,12,900.0,900.0,900.0,900.0,900.0,900.0,900.0,900.0,900.0,900.0,900.0,900.0,0.0,0.0,0.0,0.0
17297293,12,900.0,900.0,900.0,900.0,900.0,900.0,900.0,900.0,900.0,900.0,900.0,900.0,0.0,0.0,0.0,0.0
17400856,12,900.0,900.0,900.0,900.0,900.0,900.0,900.0,900.0,900.0,900.0,900.0,900.0,0.0,0.0,0.0,0.0
17496747,12,900.0,900.0,900.0,900.0,900.0,900.0,900.0,900.0,900.0,900.0,900.0,900.0,0.0,0.0,0.0,0.0
17597532,12,900.0,900.0,900.0,900.0,900.0,900.0,900.0,900.0,900.0,900.0,900.0,900.0,0.0,0.0,0.0,0.0
17697226,12,900.0,900.0,900.0,900.0,900.0,900.0,900.0,900.0,900.0,900.0,900.0,900.0,0.0,0.0,0.0,0.0
17796960,12,900.0,900.0,900.0,900.0,900.0,900.0,900.0,900.0,900.0,900.0,900.0,900.0,0.0,0.0,0.0,0.0
17896649,12,900.0,900.0,900.0,900.0,900.0,900.0,900.0,900.0,900.0,900.0,900.0,900.0,0.0,0.0,0.0,0.0
17997436,12,900.0,900.0,900.0,900.0,900.0,900.0,900.0,900.0,900.0,900.0,900.0,900.0,0.0,0.0,0.0,0.0
18100783,12,900.0,900.0,900.0,900.0,900.0,900.0,900.0,900.0,900.0,900.0,900.0,900.0,0.0,0.0,0.0,0.0
18196504,12,900.0,900.0,900.0,900.0,900.0,900.0,900.0,900.0,900.0,900.0,900.0,900.0,0.0,0.0,0.0,0.0
18300725,12,900.0,900.0,900.0,900.0,900.0,900.0,900.0,900.0,900.0,900.0,900.0,900.0,0.0,0.0,0.0,0.0
18397245,12,900.0,900.0,900.0,900.0,900.0,900.0,900.0,900.0,900.0,900.0,900.0,900.0,0.0,0.0,0.0,0.0
18497391,12,900.0,900.0,900.0,900.0,900.0,900.0,900.0,900.0,900.0,900.0,900.0,900.0,0.0,0.0,0.0,0.0
18596690,12,900.0,900.0,900.0,900.0,900.0,900.0,900.0,900.0,900.0,900.0,900.0,900.0,0.0,0.0,0.0,0.0
18697220,12,900.0,900.0,900.0,900.0,900.0,900.0,900.0,900.0,900.0,900.0,900.0,900.0,0.0,0.0,0.0,0.0
18800638,12,900.0,900.0,900.0,900.0,900.0,900.0,900.0,900.0,900.0,900.0,900.0,900.0,0.0,0.0,0.0,0.0
18897359,12,900.0,900.0,900.0,900.0,900.0,900.0,900.0,900.0,900.0,900.0,900.0,900.0,0.0,0.0,0.0,0.0
18997136,12,900.0,900.0,900.0,900.0,900.0,900.0,900.0,900.0,900.0,900.0,900.0,900.0,0.0,0.0,0.0,0.0
19096900,12,900.0,900.0,900.0,900.0,900.0,900.0,900.0,900.0,900.0,900.0,900.0,900.0,0.0,0.0,0.0,0.0
19196765,12,900.0,900.0,900.0,900.0,900.0,900.0,900.0,900.0,900.0,900.0,900.0,900.0,0.0,0.0,0.0,0.0
19297307,12,900.0,900.0,900.0,900.0,900.0,900.0,900.0,900.0,900.0,900.0,900.0,900.0,0.0,0.0,0.0,0.0
19397380,12,900.0,900.0,900.0,900.0,900.0,900.0,900.0,900.0,900.0,900.0,900.0,900.0,0.0,0.0,0.0,0.0
19500836,12,900.0,900.0,900.0,900.0,900.0,900.0,900.0,900.0,900.0,900.0,900.0,900.0,0.0,0.0,0.0,0.0
19596684,12,900.0,900.0,900.0,900.0,900.0,900.0,900.0,900.0,900.0,900.0,900.0,900.0,0.0,0.0,0.0,0.0
19697295,12,900.0,900.0,900.0,900.0,900.0,900.0,900.0,900.0,900.0,900.0,900.0,900.0,0.0,0.0,0.0,0.0
19797189,12,900.0,900.0,900.0,900.0,900.0,900.0,900.0,900.0,900.0,900.0,900.0,900.0,0.0,0.0,0.0,0.0
19896888,12,900.0,900.0,900.0,900.0,900.0,900.0,900.0,900.0,900.0,900.0,900.0,900.0,0.0,0.0,0.0,0.0
19997374,12,900.0,900.0,900.0,900.0,900.0,900.0,900.0,900.0,900.0,900.0,900.0,900.0,0.0,0.0,0.0,0.0
20097154,12,900.0,900.0,900.0,900.0,900.0,900.0,900.0,900.0,900.0,900.0,900.0,900.0,0.0,0.0,0.0,0.0
20200686,12,900.0,900.0,900.0,900.0,900.0,900.0,900.0,900.0,900.0,900.0,900.0,900.0,0.0,0.0,0.0,0.0
20297642,12,900.0,900.0,900.0,900.0,900.0,900.0,900.0,900.0,900.0,900.0,900.0,900.0,0.0,0.0,0.0,0.0
20397364,12,900.0,900.0,900.0,900.0,900.0,900.0,900.0,900.0,900.0,900.0,900.0,900.0,0.0,0.0,0.0,0.0
20496988,12,900.0,900.0,900.0,900.0,900.0,900.0,900.0,900.0,900.0,900.0,900.0,900.0,0.0,0.0,0.0,0.0
20596841,12,900.0,900.0,900.0,900.0,900.0,900.0,900.0,900.0,900.0,900.0,900.0,900.0,0.0,0.0,0.0,0.0
20697469,12,900.0,900.0,900.0,900.0,900.0,900.0,900.0,900.0,900.0,900.0,900.0,900.0,0.0,0.0,0.0,0.0
20797399,12,900.0,900.0,900.0,900.0,900.0,900.0,900.0,900.0,900.0,900.0,900.0,900.0,0.0,0.0,0.0,0.0
20897049,12,900.0,900.0,900.0,900.0,900.0,900.0,900.0,900.0,900.0,900.0,900.0,900.0,0.0,0.0,0.0,0.0
20996832,12,900.0,900.0,900.0,900.0,900.0,900.0,900.0,900.0,900.0,900.0,900.0,900.0,0.0,0.0,0.0,0.0
21097037,12,900.0,900.0,900.0,900.0,900.0,900.0,900.0,900.0,900.0,900.0,900.0,900.0,0.0,0.0,0.0,0.0
21196947,12,900.0,900.0,900.0,900.0,900.0,900.0,900.0,900.0,900.0,900.0,900.0,900.0,0.0,0.0,0.0,0.0
21297463,12,900.0,900.0,900.0,900.0,900.0,900.0,900.0,900.0,900.0,900.0,900.0,900.0,0.0,0.0,0.0,0.0
21397115,12,900.0,900.0,900.0,900.0,900.0,900.0,900.0,900.0,900.0,900.0,900.0,900.0,0.0,0.0,0.0,0.0
21497672,12,900.0,900.0,900.0,900.0,900.0,900.0,900.0,900.0,900.0,900.0,900.0,900.0,0.0,0.0,0.0,0.0
21597754,12,900.0,900.0,900.0,900.0,900.0,900.0,900.0,900.0,900.0,900.0,900.0,900.0,0.0,0.0,0.0,0.0
21696773,12,900.0,900.0,900.0,900.0,900.0,900.0,900.0,900.0,900.0,900.0,900.0,900.0,0.0,0.0,0.0,0.0
21797412,12,900.0,900.0,900.0,900.0,900.0,900.0,900.0,900.0,900.0,900.0,900.0,900.0,0.0,0.0,0.0,0.0
21897137,12,900.0,900.0,900.0,900.0,900.0,900.0,900.0,900.0,900.0,900.0,900.0,900.0,0.0,0.0,0.0,0.0
21996733,12,900.0,900.0,900.0,900.0,900.0,900.0,900.0,900.0,900.0,900.0,900.0,900.0,0.0,0.0,0.0,0.0
22097511,12,900.0,900.0,900.0,900.0,900.0,900.0,900.0,900.0,900.0,900.0,900.0,900.0,0.0,0.0,0.0,0.0
22197361,12,900.0,900.0,900.0,900.0,900.0,900.0,900.0,900.0,900.0,900.0,900.0,900.0,0.0,0.0,0.0,0.0
22297063,12,900.0,900.0,900.0,900.0,900.0,900.0,900.0,900.0,900.0,900.0,900.0,900.0,0.0,0.0,0.0,0.0
22396688,12,900.0,900.0,900.0,900.0,900.0,900.0,900.0,900.0,900.0,900.0,900.0,900.0,0.0,0.0,0.0,0.0
22497698,12,900.0,900.0,900.0,900.0,900.0,900.0,900.0,900.0,900.0,900.0,900.0,900.0,0.0,0.0,0.0,0.0
22597281,12,900.0,900.0,900.0,900.0,900.0,900.0,900.0,900.0,900.0,900.0,900.0,900.0,0.0,0.0,0.0,0.0
22697029,12,900.0,900.0,900.0,900.0,900.0,900.0,900.0,900.0,900.0,900.0,900.0,900.0,0.0,0.0,0.0,0.0
22796242,12,900.0,900.0,900.0,900.0,900.0,900.0,900.0,900.0,900.0,900.0,900.0,900.0,0.0,0.0,0.0,0.0
22888564,12,900.0,900.0,900.0,900.0,900.0,900.0,900.0,900.0,900.0,900.0,900.0,900.0,0.0,0.0,0.0,0.0
23000720,12,1002.0,1000.0,1002.0,1000.0,1500.0,1500.0,900.0,900.0,1500.0,1500.0,1500.0,1500.0,0.0,0.0,0.0,0.0
23097307,12,1002.0,1000.0,1002.0,1000.0,1500.0,1500.0,900.0,900.0,1500.0,1500.0,1500.0,1500.0,0.0,0.0,0.0,0.0
23200919,12,1002.0,1000.0,1002.0,1000.0,1500.0,1500.0,900.0,900.0,1500.0,1500.0,1500.0,1500.0,0.0,0.0,0.0,0.0
23297703,12,1002.0,1000.0,1002.0,1000.0,1500.0,1500.0,900.0,900.0,1500.0,1500.0,1500.0,1500.0,0.0,0.0,0.0,0.0
23397566,12,1002.0,1000.0,1002.0,1000.0,1500.0,1500.0,900.0,900.0,1500.0,1500.0,1500.0,1500.0,0.0,0.0,0.0,0.0
23497128,12,1002.0,1000.0,1002.0,1000.0,1500.0,1500.0,900.0,900.0,1500.0,1500.0,1500.0,1500.0,0.0,0.0,0.0,0.0
23596986,12,1002.0,1000.0,1002.0,1000.0,1500.0,1500.0,900.0,900.0,1500.0,1500.0,1500.0,1500.0,0.0,0.0,0.0,0.0
23697667,12,1000.0,1002.0,1000.0,1002.0,1500.0,1500.0,900.0,900.0,1500.0,1500.0,1500.0,1500.0,0.0,0.0,0.0,0.0
23797456,12,1002.0,1000.0,1002.0,1000.0,1500.0,1500.0,900.0,900.0,1500.0,1500.0,1500.0,1500.0,0.0,0.0,0.0,0.0
23897195,12,1002.0,1000.0,1002.0,1000.0,1500.0,1500.0,900.0,900.0,1500.0,1500.0,1500.0,1500.0,0.0,0.0,0.0,0.0
23996978,12,1015.0,1000.0,1015.0,1000.0,1500.0,1500.0,900.0,900.0,1500.0,1500.0,1500.0,1500.0,0.0,0.0,0.0,0.0
24097538,12,1046.0,1000.0,1046.0,1000.0,1500.0,1500.0,900.0,900.0,1500.0,1500.0,1500.0,1500.0,0.0,0.0,0.0,0.0
24196984,12,1052.0,1022.0,1068.0,1013.0,1500.0,1500.0,900.0,900.0,1500.0,1500.0,1500.0,1500.0,0.0,0.0,0.0,0.0
24297490,12,1038.0,1068.0,1101.0,1015.0,1500.0,1500.0,900.0,900.0,1500.0,1500.0,1500.0,1500.0,0.0,0.0,0.0,0.0
24397447,12,1102.0,1059.0,1094.0,1037.0,1500.0,1500.0,900.0,900.0,1500.0,1500.0,1500.0,1500.0,0.0,0.0,0.0,0.0
24497028,12,1106.0,1097.0,1118.0,1058.0,1500.0,1500.0,900.0,900.0,1500.0,1500.0,1500.0,1500.0,0.0,0.0,0.0,0.0
24600804,12,1142.0,1105.0,1166.0,1059.0,1500.0,1500.0,900.0,900.0,1500.0,1500.0,1500.0,1500.0,0.0,0.0,0.0,0.0
24697683,12,1149.0,1150.0,1152.0,1113.0,1500.0,1500.0,900.0,900.0,1500.0,1500.0,1500.0,1500.0,0.0,0.0,0.0,0.0
24797470,12,1173.0,1148.0,1207.0,1133.0,1500.0,1500.0,900.0,900.0,1500.0,1500.0,1500.0,1500.0,0.0,0.0,0.0,0.0
24897159,12,1246.0,1189.0,1200.0,1137.0,1500.0,1500.0,900.0,900.0,1500.0,1500.0,1500.0,1500.0,0.0,0.0,0.0,0.0
24996922,12,1237.0,1213.0,1231.0,1221.0,1500.0,1500.0,900.0,900.0,1500.0,1500.0,1500.0,1500.0,0.0,0.0,0.0,0.0
25097476,12,1275.0,1219.0,1282.0,1260.0,1500.0,1500.0,900.0,900.0,1500.0,1500.0,1500.0,1500.0,0.0,0.0,0.0,0.0
25197383,12,1305.0,1266.0,1321.0,1284.0,1500.0,1500.0,900.0,900.0,1500.0,1500.0,1500.0,1500.0,0.0,0.0,0.0,0.0
25300811,12,1376.0,1239.0,1362.0,1258.0,1500.0,1500.0,900.0,900.0,1500.0,1500.0,1500.0,1500.0,0.0,0.0,0.0,0.0
25397222,12,1350.0,1299.0,1374.0,1260.0,1500.0,1500.0,900.0,900.0,1500.0,1500.0,1500.0,1500.0,0.0,0.0,0.0,0.0
25496991,12,1328.0,1325.0,1372.0,1310.0,1500.0,1500.0,900.0,900.0,1500.0,1500.0,1500.0,1500.0,0.0,0.0,0.0,0.0
25597825,12,1348.0,1325.0,1374.0,1329.0,1500.0,1500.0,900.0,900.0,1500.0,1500.0,1500.0,1500.0,0.0,0.0,0.0,0.0
25697571,12,1390.0,1329.0,1360.0,1332.0,1500.0,1500.0,900.0,900.0,1500.0,1500.0,1500.0,1500.0,0.0,0.0,0.0,0.0
25797384,12,1366.0,1347.0,1401.0,1328.0,1500.0,1500.0,900.0,900.0,1500.0,1500.0,1500.0,1500.0,0.0,0.0,0.0,0.0
25897729,12,1355.0,1375.0,1389.0,1379.0,1500.0,1500.0,900.0,900.0,1500.0,1500.0,1500.0,1500.0,0.0,0.0,0.0,0.0
25997540,12,1367.0,1404.0,1430.0,1352.0,1500.0,1500.0,900.0,900.0,1500.0,1500.0,1500.0,1500.0,0.0,0.0,0.0,0.0
26097060,12,1394.0,1428.0,1394.0,1389.0,1500.0,1500.0,900.0,900.0,1500.0,1500.0,1500.0,1500.0,0.0,0.0,0.0,0.0
26196920,12,1390.0,1453.0,1441.0,1384.0,1500.0,1500.0,900.0,900.0,1500.0,1500.0,1500.0,1500.0,0.0,0.0,0.0,0.0
26297668,12,1416.0,1430.0,1428.0,1450.0,1500.0,1500.0,900.0,900.0,1500.0,1500.0,1500.0,1500.0,0.0,0.0,0.0,0.0
26397254,12,1423.0,1468.0,1425.0,1459.0,1500.0,1500.0,900.0,900.0,1500.0,1500.0,1500.0,1500.0,0.0,0.0,0.0,0.0
26500995,12,1490.0,1445.0,1427.0,1477.0,1500.0,1500.0,900.0,900.0,1500.0,1500.0,1500.0,1500.0,0.0,0.0,0.0,0.0
26597566,12,1467.0,1468.0,1462.0,1504.0,1500.0,1500.0,900.0,900.0,1500.0,1500.0,1500.0,1500.0,0.0,0.0,0.0,0.0
26697425,12,1477.0,1511.0,1475.0,1500.0,1500.0,1500.0,900.0,900.0,1500.0,1500.0,1500.0,1500.0,0.0,0.0,0.0,0.0
26797725,12,1516.0,1521.0,1501.0,1508.0,1500.0,1500.0,900.0,900.0,1500.0,1500.0,1500.0,1500.0,0.0,0.0,0.0,0.0
26897247,12,1495.0,1554.0,1469.0,1597.0,1500.0,1500.0,900.0,900.0,1500.0,1500.0,1500.0,1500.0,0.0,0.0,0.0,0.0
26997590,12,1588.0,1528.0,1554.0,1618.0,1500.0,1500.0,900.0,900.0,1500.0,1500.0,1500.0,1500.0,0.0,0.0,0.0,0.0
27097319,12,1589.0,1573.0,1563.0,1637.0,1500.0,1500.0,900.0,900.0,1500.0,1500.0,1500.0,1500.0,0.0,0.0,0.0,0.0
27201241,12,1599.0,1582.0,1589.0,1653.0,1500.0,1500.0,900.0,900.0,1500.0,1500.0,1500.0,1500.0,0.0,0.0,0.0,0.0
27293697,12,1644.0,1604.0,1599.0,1647.0,1500.0,1500.0,900.0,900.0,1500.0,1500.0,1500.0,1500.0,0.0,0.0,0.0,0.0
27397764,12,1637.0,1618.0,1654.0,1625.0,1500.0,1500.0,900.0,900.0,1500.0,1500.0,1500.0,1500.0,0.0,0.0,0.0,0.0
27497125,12,1654.0,1608.0,1662.0,1607.0,1500.0,1500.0,900.0,900.0,1500.0,1500.0,1500.0,1500.0,0.0,0.0,0.0,0.0
27597666,12,1636.0,1631.0,1609.0,1644.0,1500.0,1500.0,900.0,900.0,1500.0,1500.0,1500.0,1500.0,0.0,0.0,0.0,0.0
27697487,12,1625.0,1631.0,1599.0,1650.0,1500.0,1500.0,900.0,900.0,1500.0,1500.0,1500.0,1500.0,0.0,0.0,0.0,0.0
27797131,12,1667.0,1602.0,1584.0,1659.0,1500.0,1500.0,900.0,900.0,1500.0,1500.0,1500.0,1500.0,0.0,0.0,0.0,0.0
27897900,12,1666.0,1586.0,1584.0,1682.0,1500.0,1500.0,900.0,900.0,1500.0,1500.0,1500.0,1500.0,0.0,0.0,0.0,0.0
27997087,12,1649.0,1631.0,1584.0,1647.0,1500.0,1500.0,900.0,900.0,1500.0,1500.0,1500.0,1500.0,0.0,0.0,0.0,0.0
28097944,12,1638.0,1616.0,1642.0,1621.0,1500.0,1500.0,900.0,900.0,1500.0,1500.0,1500.0,1500.0,0.0,0.0,0.0,0.0
28197728,12,1606.0,1674.0,1652.0,1577.0,1500.0,1500.0,900.0,900.0,1500.0,1500.0,1500.0,1500.0,0.0,0.0,0.0,0.0
28297541,12,1575.0,1645.0,1653.0,1637.0,1500.0,1500.0,900.0,900.0,1500.0,1500.0,1500.0,1500.0,0.0,0.0,0.0,0.0
28393700,12,1615.0,1646.0,1585.0,1629.0,1500.0,1500.0,900.0,900.0,1500.0,1500.0,1500.0,1500.0,0.0,0.0,0.0,0.0
28497311,12,1621.0,1588.0,1576.0,1622.0,1500.0,1500.0,900.0,900.0,1500.0,1500.0,1500.0,1500.0,0.0,0.0,0.0,0.0
28597716,12,1577.0,1626.0,1641.0,1599.0,1500.0,1500.0,900.0,900.0,1500.0,1500.0,1500.0,1500.0,0.0,0.0,0.0,0.0
28697130,12,1610.0,1620.0,1651.0,1581.0,1500.0,1500.0,900.0,900.0,1500.0,1500.0,1500.0,1500.0,0.0,0.0,0.0,0.0
28797452,12,1594.0,1657.0,1625.0,1597.0,1500.0,1500.0,900.0,900.0,1500.0,1500.0,1500.0,1500.0,0.0,0.0,0.0,0.0
28897213,12,1595.0,1610.0,1652.0,1597.0,1500.0,1500.0,900.0,900.0,1500.0,1500.0,1500.0,1500.0,0.0,0.0,0.0,0.0
28997850,12,1621.0,1658.0,1611.0,1577.0,1500.0,1500.0,900.0,900.0,1500.0,1500.0,1500.0,1500.0,0.0,0.0,0.0,0.0
29097562,12,1620.0,1605.0,1616.0,1630.0,1500.0,1500.0,900.0,900.0,1500.0,1500.0,1500.0,1500.0,0.0,0.0,0.0,0.0
29197333,12,1595.0,1647.0,1615.0,1615.0,1500.0,1500.0,900.0,900.0,1500.0,1500.0,1500.0,1500.0,0.0,0.0,0.0,0.0
29301132,12,1630.0,1603.0,1645.0,1592.0,1500.0,1500.0,900.0,900.0,1500.0,1500.0,1500.0,1500.0,0.0,0.0,0.0,0.0
29397717,12,1635.0,1597.0,1637.0,1601.0,1500.0,1500.0,900.0,900.0,1500.0,1500.0,1500.0,1500.0,0.0,0.0,0.0,0.0
29497534,12,1554.0,1679.0,1641.0,1596.0,1500.0,1500.0,900.0,900.0,1500.0,1500.0,1500.0,1500.0,0.0,0.0,0.0,0.0
29597154,12,1599.0,1649.0,1564.0,1645.0,1500.0,1500.0,900.0,900.0,1500.0,1500.0,1500.0,1500.0,0.0,0.0,0.0,0.0
29697614,12,1620.0,1589.0,1643.0,1610.0,1500.0,1500.0,900.0,900.0,1500.0,1500.0,1500.0,1500.0,0.0,0.0,0.0,0.0
29797200,12,1631.0,1601.0,1631.0,1595.0,1500.0,1500.0,900.0,900.0,1500.0,1500.0,1500.0,1500.0,0.0,0.0,0.0,0.0
29897545,12,1630.0,1610.0,1618.0,1610.0,1500.0,1500.0,900.0,900.0,1500.0,1500.0,1500.0,1500.0,0.0,0.0,0.0,0.0
29997329,12,1605.0,1631.0,1605.0,1623.0,1500.0,1500.0,900.0,900.0,1500.0,1500.0,1500.0,1500.0,0.0,0.0,0.0,0.0
30097060,12,1620.0,1622.0,1623.0,1591.0,1500.0,1500.0,900.0,900.0,1500.0,1500.0,1500.0,1500.0,0.0,0.0,0.0,0.0
30197137,12,1622.0,1609.0,1619.0,1600.0,1500.0,1500.0,900.0,900.0,1500.0,1500.0,1500.0,1500.0,0.0,0.0,0.0,0.0
30297423,12,1555.0,1665.0,1627.0,1599.0,1500.0,1500.0,900.0,900.0,1500.0,1500.0,1500.0,1500.0,0.0,0.0,0.0,0.0
30397249,12,1579.0,1636.0,1660.0,1586.0,1500.0,1500.0,900.0,900.0,1500.0,1500.0,1500.0,1500.0,0.0,0.0,0.0,0.0
30497868,12,1584.0,1642.0,1605.0,1628.0,1500.0,1500.0,900.0,900.0,1500.0,1500.0,1500.0,1500.0,0.0,0.0,0.0,0.0
30597634,12,1577.0,1660.0,1600.0,1623.0,1500.0,1500.0,900.0,900.0,1500.0,1500.0,1500.0,1500.0,0.0,0.0,0.0,0.0
30701416,12,1622.0,1641.0,1630.0,1649.0,1500.0,1500.0,900.0,900.0,1500.0,1500.0,1500.0,1500.0,0.0,0.0,0.0,0.0
30798009,12,1685.0,1565.0,1612.0,1615.0,1500.0,1500.0,900.0,900.0,1500.0,1500.0,1500.0,1500.0,0.0,0.0,0.0,0.0
30897783,12,1676.0,1549.0,1600.0,1610.0,1500.0,1500.0,900.0,900.0,1500.0,1500.0,1500.0,1500.0,0.0,0.0,0.0,0.0
30997437,12,1618.0,1630.0,1603.0,1597.0,1500.0,1500.0,900.0,900.0,1500.0,1500.0,1500.0,1500.0,0.0,0.0,0.0,0.0
31097482,12,1619.0,1607.0,1567.0,1648.0,1500.0,1500.0,900.0,900.0,1500.0,1500.0,1500.0,1500.0,0.0,0.0,0.0,0.0
31197195,12,1573.0,1649.0,1607.0,1630.0,1500.0,1500.0,900.0,900.0,1500.0,1500.0,1500.0,1500.0,0.0,0.0,0.0,0.0
31297887,12,1566.0,1630.0,1635.0,1605.0,1500.0,1500.0,900.0,900.0,1500.0,1500.0,1500.0,1500.0,0.0,0.0,0.0,0.0
31397046,12,1613.0,1620.0,1636.0,1580.0,1500.0,1500.0,900.0,900.0,1500.0,1500.0,1500.0,1500.0,0.0,0.0,0.0,0.0
31497765,12,1624.0,1572.0,1669.0,1581.0,1500.0,1500.0,900.0,900.0,1500.0,1500.0,1500.0,1500.0,0.0,0.0,0.0,0.0
31598007,12,1627.0,1583.0,1615.0,1628.0,1500.0,1500.0,900.0,900.0,1500.0,1500.0,1500.0,1500.0,0.0,0.0,0.0,0.0
31697516,12,1617.0,1624.0,1596.0,1619.0,1500.0,1500.0,900.0,900.0,1500.0,1500.0,1500.0,1500.0,0.0,0.0,0.0,0.0
31797290,12,1617.0,1647.0,1601.0,1594.0,1500.0,1500.0,900.0,900.0,1500.0,1500.0,1500.0,1500.0,0.0,0.0,0.0,0.0
31898131,12,1623.0,1640.0,1585.0,1606.0,1500.0,1500.0,900.0,900.0,1500.0,1500.0,1500.0,1500.0,0.0,0.0,0.0,0.0
31997753,12,1625.0,1604.0,1596.0,1629.0,1500.0,1500.0,900.0,900.0,1500.0,1500.0,1500.0,1500.0,0.0,0.0,0.0,0.0
32097591,12,1626.0,1618.0,1608.0,1609.0,1500.0,1500.0,900.0,900.0,1500.0,1500.0,1500.0,1500.0,0.0,0.0,0.0,0.0
32197307,12,1617.0,1606.0,1608.0,1624.0,1500.0,1500.0,900.0,900.0,1500.0,1500.0,1500.0,1500.0,0.0,0.0,0.0,0.0
32298096,12,1603.0,1612.0,1625.0,1612.0,1500.0,1500.0,900.0,900.0,1500.0,1500.0,1500.0,1500.0,0.0,0.0,0.0,0.0
32397290,12,1587.0,1641.0,1584.0,1647.0,1500.0,1500.0,900.0,900.0,1500.0,1500.0,1500.0,1500.0,0.0,0.0,0.0,0.0
32497538,12,1621.0,1608.0,1607.0,1619.0,1500.0,1500.0,900.0,900.0,1500.0,1500.0,1500.0,1500.0,0.0,0.0,0.0,0.0
32597273,12,1568.0,1632.0,1621.0,1632.0,1500.0,1500.0,900.0,900.0,1500.0,1500.0,1500.0,1500.0,0.0,0.0,0.0,0.0
32697886,12,1629.0,1596.0,1602.0,1631.0,1500.0,1500.0,900.0,900.0,1500.0,1500.0,1500.0,1500.0,0.0,0.0,0.0,0.0
32797812,12,1617.0,1623.0,1583.0,1626.0,1500.0,1500.0,900.0,900.0,1500.0,1500.0,1500.0,1500.0,0.0,0.0,0.0,0.0
32897446,12,1649.0,1609.0,1590.0,1603.0,1500.0,1500.0,900.0,900.0,1500.0,1500.0,1500.0,1500.0,0.0,0.0,0.0,0.0
32997183,12,1620.0,1610.0,1619.0,1608.0,1500.0,1500.0,900.0,900.0,1500.0,1500.0,1500.0,1500.0,0.0,0.0,0.0,0.0
33097333,12,1614.0,1594.0,1631.0,1603.0,1500.0,1500.0,900.0,900.0,1500.0,1500.0,1500.0,1500.0,0.0,0.0,0.0,0.0
33197253,12,1623.0,1610.0,1599.0,1622.0,1500.0,1500.0,900.0,900.0,1500.0,1500.0,1500.0,1500.0,0.0,0.0,0.0,0.0
33297902,12,1615.0,1608.0,1621.0,1596.0,1500.0,1500.0,900.0,900.0,1500.0,1500.0,1500.0,1500.0,0.0,0.0,0.0,0.0
33397691,12,1638.0,1589.0,1616.0,1607.0,1500.0,1500.0,900.0,900.0,1500.0,1500.0,1500.0,1500.0,0.0,0.0,0.0,0.0
33501246,12,1638.0,1585.0,1635.0,1587.0,1500.0,1500.0,900.0,900.0,1500.0,1500.0,1500.0,1500.0,0.0,0.0,0.0,0.0
33597668,12,1616.0,1624.0,1617.0,1596.0,1500.0,1500.0,900.0,900.0,1500.0,1500.0,1500.0,1500.0,0.0,0.0,0.0,0.0
33697337,12,1607.0,1608.0,1603.0,1620.0,1500.0,1500.0,900.0,900.0,1500.0,1500.0,1500.0,1500.0,0.0,0.0,0.0,0.0
33798053,12,1614.0,1613.0,1573.0,1650.0,1500.0,1500.0,900.0,900.0,1500.0,1500.0,1500.0,1500.0,0.0,0.0,0.0,0.0
33897825,12,1629.0,1605.0,1610.0,1608.0,1500.0,1500.0,900.0,900.0,1500.0,1500.0,1500.0,1500.0,0.0,0.0,0.0,0.0
33997436,12,1650.0,1580.0,1618.0,1595.0,1500.0,1500.0,900.0,900.0,1500.0,1500.0,1500.0,1500.0,0.0,0.0,0.0,0.0
34098122,12,1597.0,1635.0,1625.0,1594.0,1500.0,1500.0,900.0,900.0,1500.0,1500.0,1500.0,1500.0,0.0,0.0,0.0,0.0
34197838,12,1594.0,1648.0,1594.0,1616.0,1500.0,1500.0,900.0,900.0,1500.0,1500.0,1500.0,1500.0,0.0,0.0,0.0,0.0
34297731,12,1628.0,1615.0,1598.0,1601.0,1500.0,1500.0,900.0,900.0,1500.0,1500.0,1500.0,1500.0,0.0,0.0,0.0,0.0
34397298,12,1587.0,1621.0,1643.0,1588.0,1500.0,1500.0,900.0,900.0,1500.0,1500.0,1500.0,1500.0,0.0,0.0,0.0,0.0
34498025,12,1622.0,1591.0,1648.0,1599.0,1500.0,1500.0,900.0,900.0,1500.0,1500.0,1500.0,1500.0,0.0,0.0,0.0,0.0
34597802,12,1655.0,1578.0,1614.0,1597.0,1500.0,1500.0,900.0,900.0,1500.0,1500.0,1500.0,1500.0,0.0,0.0,0.0,0.0
34697647,12,1611.0,1582.0,1615.0,1626.0,1500.0,1500.0,900.0,900.0,1500.0,1500.0,1500.0,1500.0,0.0,0.0,0.0,0.0
34797302,12,1604.0,1633.0,1609.0,1606.0,1500.0,1500.0,900.0,900.0,1500.0,1500.0,1500.0,1500.0,0.0,0.0,0.0,0.0
34898227,12,1606.0,1639.0,1644.0,1569.0,1500.0,1500.0,900.0,900.0,1500.0,1500.0,1500.0,1500.0,0.0,0.0,0.0,0.0
34997868,12,1670.0,1544.0,1643.0,1593.0,1500.0,1500.0,900.0,900.0,1500.0,1500.0,1500.0,1500.0,0.0,0.0,0.0,0.0
35097699,12,1625.0,1610.0,1591.0,1623.0,1500.0,1500.0,900.0,900.0,1500.0,1500.0,1500.0,1500.0,0.0,0.0,0.0,0.0
35197320,12,1576.0,1652.0,1553.0,1661.0,1500.0,1500.0,900.0,900.0,1500.0,1500.0,1500.0,1500.0,0.0,0.0,0.0,0.0
35297305,12,1654.0,1586.0,1568.0,1677.0,1500.0,1500.0,900.0,900.0,1500.0,1500.0,1500.0,1500.0,0.0,0.0,0.0,0.0
35397449,12,1614.0,1664.0,1608.0,1662.0,1500.0,1500.0,900.0,900.0,1500.0,1500.0,1500.0,1500.0,0.0,0.0,0.0,0.0
35497331,12,1657.0,1669.0,1629.0,1678.0,1500.0,1500.0,900.0,900.0,1500.0,1500.0,1500.0,1500.0,0.0,0.0,0.0,0.0
35601502,12,1667.0,1659.0,1723.0,1597.0,1500.0,1500.0,900.0,900.0,1500.0,1500.0,1500.0,1500.0,0.0,0.0,0.0,0.0
35697225,12,1665.0,1660.0,1678.0,1657.0,1500.0,1500.0,900.0,900.0,1500.0,1500.0,1500.0,1500.0,0.0,0.0,0.0,0.0
35798104,12,1678.0,1635.0,1656.0,1670.0,1500.0,1500.0,900.0,900.0,1500.0,1500.0,1500.0,1500.0,0.0,0.0,0.0,0.0
35897808,12,1700.0,1630.0,1654.0,1719.0,1500.0,1500.0,900.0,900.0,1500.0,1500.0,1500.0,1500.0,0.0,0.0,0.0,0.0
35997642,12,1624.0,1647.0,1628.0,1629.0,1500.0,1500.0,900.0,900.0,1500.0,1500.0,1500.0,1500.0,0.0,0.0,0.0,0.0
36098297,12,1617.0,1627.0,1603.0,1623.0,1500.0,1500.0,900.0,900.0,1500.0,1500.0,1500.0,1500.0,0.0,0.0,0.0,0.0
36197993,12,1597.0,1653.0,1653.0,1569.0,1500.0,1500.0,900.0,900.0,1500.0,1500.0,1500.0,1500.0,0.0,0.0,0.0,0.0
36297669,12,1626.0,1615.0,1644.0,1588.0,1500.0,1500.0,900.0,900.0,1500.0,1500.0,1500.0,1500.0,0.0,0.0,0.0,0.0
36398186,12,1608.0,1607.0,1658.0,1577.0,1500.0,1500.0,900.0,900.0,1500.0,1500.0,1500.0,1500.0,0.0,0.0,0.0,0.0
36497514,12,1624.0,1607.0,1577.0,1625.0,1500.0,1500.0,900.0,900.0,1500.0,1500.0,1500.0,1500.0,0.0,0.0,0.0,0.0
36597984,12,1682.0,1581.0,1614.0,1626.0,1500.0,1500.0,900.0,900.0,1500.0,1500.0,1500.0,1500.0,0.0,0.0,0.0,0.0
36697587,12,1680.0,1598.0,1648.0,1600.0,1500.0,1500.0,900.0,900.0,1500.0,1500.0,1500.0,1500.0,0.0,0.0,0.0,0.0
36797441,12,1644.0,1608.0,1642.0,1583.0,1500.0,1500.0,900.0,900.0,1500.0,1500.0,1500.0,1500.0,0.0,0.0,0.0,0.0
36897752,12,1621.0,1606.0,1652.0,1631.0,1500.0,1500.0,900.0,900.0,1500.0,1500.0,1500.0,1500.0,0.0,0.0,0.0,0.0
37001330,12,1667.0,1603.0,1603.0,1631.0,1500.0,1500.0,900.0,900.0,1500.0,1500.0,1500.0,1500.0,0.0,0.0,0.0,0.0
37098089,12,1656.0,1596.0,1578.0,1657.0,1500.0,1500.0,900.0,900.0,1500.0,1500.0,1500.0,1500.0,0.0,0.0,0.0,0.0
37197959,12,1612.0,1619.0,1637.0,1603.0,1500.0,1500.0,900.0,900.0,1500.0,1500.0,1500.0,1500.0,0.0,0.0,0.0,0.0
37297626,12,1617.0,1634.0,1648.0,1569.0,1500.0,1500.0,900.0,900.0,1500.0,1500.0,1500.0,1500.0,0.0,0.0,0.0,0.0
37397314,12,1663.0,1593.0,1585.0,1635.0,1500.0,1500.0,900.0,900.0,1500.0,1500.0,1500.0,1500.0,0.0,0.0,0.0,0.0
37498149,12,1640.0,1569.0,1610.0,1651.0,1500.0,1500.0,900.0,900.0,1500.0,1500.0,1500.0,1500.0,0.0,0.0,0.0,0.0
37597780,12,1616.0,1629.0,1578.0,1653.0,1500.0,1500.0,900.0,900.0,1500.0,1500.0,1500.0,1500.0,0.0,0.0,0.0,0.0
37697880,12,1635.0,1628.0,1598.0,1605.0,1500.0,1500.0,900.0,900.0,1500.0,1500.0,1500.0,1500.0,0.0,0.0,0.0,0.0
37797588,12,1588.0,1632.0,1625.0,1628.0,1500.0,1500.0,900.0,900.0,1500.0,1500.0,1500.0,1500.0,0.0,0.0,0.0,0.0
37897288,12,1618.0,1629.0,1602.0,1623.0,1500.0,1500.0,900.0,900.0,1500.0,1500.0,1500.0,1500.0,0.0,0.0,0.0,0.0
37998244,12,1616.0,1609.0,1634.0,1605.0,1500.0,1500.0,900.0,900.0,1500.0,1500.0,1500.0,1500.0,0.0,0.0,0.0,0.0
38097748,12,1605.0,1643.0,1601.0,1618.0,1500.0,1500.0,900.0,900.0,1500.0,1500.0,1500.0,1500.0,0.0,0.0,0.0,0.0
38197510,12,1640.0,1615.0,1635.0,1579.0,1500.0,1500.0,900.0,900.0,1500.0,1500.0,1500.0,1500.0,0.0,0.0,0.0,0.0
38298253,12,1614.0,1603.0,1628.0,1622.0,1500.0,1500.0,900.0,900.0,1500.0,1500.0,1500.0,1500.0,0.0,0.0,0.0,0.0
38394122,12,1627.0,1600.0,1618.0,1633.0,1500.0,1500.0,900.0,900.0,1500.0,1500.0,1500.0,1500.0,0.0,0.0,0.0,0.0
38498005,12,1633.0,1625.0,1571.0,1645.0,1500.0,1500.0,900.0,900.0,1500.0,1500.0,1500.0,1500.0,0.0,0.0,0.0,0.0
38597761,12,1605.0,1649.0,1601.0,1614.0,1500.0,1500.0,900.0,900.0,1500.0,1500.0,1500.0,1500.0,0.0,0.0,0.0,0.0
38698276,12,1632.0,1626.0,1594.0,1621.0,1500.0,1500.0,900.0,900.0,1500.0,1500.0,1500.0,1500.0,0.0,0.0,0.0,0.0
38798016,12,1601.0,1635.0,1618.0,1613.0,1500.0,1500.0,900.0,900.0,1500.0,1500.0,1500.0,1500.0,0.0,0.0,0.0,0.0
38897694,12,1638.0,1618.0,1585.0,1629.0,1500.0,1500.0,900.0,900.0,1500.0,1500.0,1500.0,1500.0,0.0,0.0,0.0,0.0
38997573,12,1658.0,1584.0,1584.0,1638.0,1500.0,1500.0,900.0,900.0,1500.0,1500.0,1500.0,1500.0,0.0,0.0,0.0,0.0
39098224,12,1623.0,1593.0,1660.0,1594.0,1500.0,1500.0,900.0,900.0,1500.0,1500.0,1500.0,1500.0,0.0,0.0,0.0,0.0
39197914,12,1618.0,1603.0,1635.0,1612.0,1500.0,1500.0,900.0,900.0,1500.0,1500.0,1500.0,1500.0,0.0,0.0,0.0,0.0
39297785,12,1588.0,1614.0,1614.0,1658.0,1500.0,1500.0,900.0,900.0,1500.0,1500.0,1500.0,1500.0,0.0,0.0,0.0,0.0
39397944,12,1571.0,1670.0,1620.0,1608.0,1500.0,1500.0,900.0,900.0,1500.0,1500.0,1500.0,1500.0,0.0,0.0,0.0,0.0
39497618,12,1641.0,1597.0,1591.0,1641.0,1500.0,1500.0,900.0,900.0,1500.0,1500.0,1500.0,1500.0,0.0,0.0,0.0,0.0
39597794,12,1610.0,1655.0,1583.0,1635.0,1500.0,1500.0,900.0,900.0,1500.0,1500.0,1500.0,1500.0,0.0,0.0,0.0,0.0
39697647,12,1610.0,1622.0,1630.0,1611.0,1500.0,1500.0,900.0,900.0,1500.0,1500.0,1500.0,1500.0,0.0,0.0,0.0,0.0
39797350,12,1620.0,1617.0,1631.0,1602.0,1500.0,1500.0,900.0,900.0,1500.0,1500.0,1500.0,1500.0,0.0,0.0,0.0,0.0
39898103,12,1566.0,1664.0,1573.0,1668.0,1500.0,1500.0,900.0,900.0,1500.0,1500.0,1500.0,1500.0,0.0,0.0,0.0,0.0
39997949,12,1630.0,1593.0,1585.0,1660.0,1500.0,1500.0,900.0,900.0,1500.0,1500.0,1500.0,1500.0,0.0,0.0,0.0,0.0
40097553,12,1583.0,1632.0,1611.0,1625.0,1500.0,1500.0,900.0,900.0,1500.0,1500.0,1500.0,1500.0,0.0,0.0,0.0,0.0
40197958,12,1608.0,1618.0,1613.0,1619.0,1500.0,1500.0,900.0,900.0,1500.0,1500.0,1500.0,1500.0,0.0,0.0,0.0,0.0
40298176,12,1611.0,1607.0,1606.0,1643.0,1500.0,1500.0,900.0,900.0,1500.0,1500.0,1500.0,1500.0,0.0,0.0,0.0,0.0
40397767,12,1601.0,1630.0,1633.0,1605.0,1500.0,1500.0,900.0,900.0,1500.0,1500.0,1500.0,1500.0,0.0,0.0,0.0,0.0
40497661,12,1566.0,1652.0,1632.0,1616.0,1500.0,1500.0,900.0,900.0,1500.0,1500.0,1500.0,1500.0,0.0,0.0,0.0,0.0
40598360,12,1627.0,1607.0,1683.0,1549.0,1500.0,1500.0,900.0,900.0,1500.0,1500.0,1500.0,1500.0,0.0,0.0,0.0,0.0
40698014,12,1606.0,1630.0,1629.0,1606.0,1500.0,1500.0,900.0,900.0,1500.0,1500.0,1500.0,1500.0,0.0,0.0,0.0,0.0
40797717,12,1654.0,1579.0,1588.0,1657.0,1500.0,1500.0,900.0,900.0,1500.0,1500.0,1500.0,1500.0,0.0,0.0,0.0,0.0
40897567,12,1629.0,1612.0,1593.0,1643.0,1500.0,1500.0,900.0,900.0,1500.0,1500.0,1500.0,1500.0,0.0,0.0,0.0,0.0
40998296,12,1624.0,1651.0,1600.0,1595.0,1500.0,1500.0,900.0,900.0,1500.0,1500.0,1500.0,1500.0,0.0,0.0,0.0,0.0
41098014,12,1647.0,1577.0,1624.0,1611.0,1500.0,1500.0,900.0,900.0,1500.0,1500.0,1500.0,1500.0,0.0,0.0,0.0,0.0
41197687,12,1630.0,1599.0,1645.0,1596.0,1500.0,1500.0,900.0,900.0,1500.0,1500.0,1500.0,1500.0,0.0,0.0,0.0,0.0
41294236,12,1618.0,1581.0,1638.0,1639.0,1500.0,1500.0,900.0,900.0,1500.0,1500.0,1500.0,1500.0,0.0,0.0,0.0,0.0
41398027,12,1601.0,1653.0,1560.0,1658.0,1500.0,1500.0,900.0,900.0,1500.0,1500.0,1500.0,1500.0,0.0,0.0,0.0,0.0
41497828,12,1593.0,1650.0,1624.0,1612.0,1500.0,1500.0,900.0,900.0,1500.0,1500.0,1500.0,1500.0,0.0,0.0,0.0,0.0
41598134,12,1594.0,1640.0,1652.0,1579.0,1500.0,1500.0,900.0,900.0,1500.0,1500.0,1500.0,1500.0,0.0,0.0,0.0,0.0
41698060,12,1602.0,1622.0,1675.0,1575.0,1500.0,1500.0,900.0,900.0,1500.0,1500.0,1500.0,1500.0,0.0,0.0,0.0,0.0
41797621,12,1617.0,1613.0,1633.0,1600.0,1500.0,1500.0,900.0,900.0,1500.0,1500.0,1500.0,1500.0,0.0,0.0,0.0,0.0
41897675,12,1597.0,1634.0,1619.0,1617.0,1500.0,1500.0,900.0,900.0,1500.0,1500.0,1500.0,1500.0,0.0,0.0,0.0,0.0
41997591,12,1622.0,1606.0,1573.0,1672.0,1500.0,1500.0,900.0,900.0,1500.0,1500.0,1500.0,1500.0,0.0,0.0,0.0,0.0
42098306,12,1613.0,1622.0,1655.0,1582.0,1500.0,1500.0,900.0,900.0,1500.0,1500.0,1500.0,1500.0,0.0,0.0,0.0,0.0
42198033,12,1610.0,1631.0,1661.0,1572.0,1500.0,1500.0,900.0,900.0,1500.0,1500.0,1500.0,1500.0,0.0,0.0,0.0,0.0
42297654,12,1597.0,1611.0,1655.0,1607.0,1500.0,1500.0,900.0,900.0,1500.0,1500.0,1500.0,1500.0,0.0,0.0,0.0,0.0
42394401,12,1585.0,1639.0,1603.0,1628.0,1500.0,1500.0,900.0,900.0,1500.0,1500.0,1500.0,1500.0,0.0,0.0,0.0,0.0
42498071,12,1622.0,1610.0,1617.0,1617.0,1500.0,1500.0,900.0,900.0,1500.0,1500.0,1500.0,1500.0,0.0,0.0,0.0,0.0
42597937,12,1656.0,1557.0,1661.0,1595.0,1500.0,1500.0,900.0,900.0,1500.0,1500.0,1500.0,1500.0,0.0,0.0,0.0,0.0
42697571,12,1667.0,1570.0,1636.0,1591.0,1500.0,1500.0,900.0,900.0,1500.0,1500.0,1500.0,1500.0,0.0,0.0,0.0,0.0
42798430,12,1601.0,1645.0,1605.0,1614.0,1500.0,1500.0,900.0,900.0,1500.0,1500.0,1500.0,1500.0,0.0,0.0,0.0,0.0
42897967,12,1583.0,1646.0,1598.0,1630.0,1500.0,1500.0,900.0,900.0,1500.0,1500.0,1500.0,1500.0,0.0,0.0,0.0,0.0
42997968,12,1614.0,1599.0,1607.0,1644.0,1500.0,1500.0,900.0,900.0,1500.0,1500.0,1500.0,1500.0,0.0,0.0,0.0,0.0
43094380,12,1612.0,1635.0,1613.0,1605.0,1500.0,1500.0,900.0,900.0,1500.0,1500.0,1500.0,1500.0,0.0,0.0,0.0,0.0
43198194,12,1592.0,1667.0,1596.0,1609.0,1500.0,1500.0,900.0,900.0,1500.0,1500.0,1500.0,1500.0,0.0,0.0,0.0,0.0
43298440,12,1576.0,1673.0,1617.0,1610.0,1500.0,1500.0,900.0,900.0,1500.0,1500.0,1500.0,1500.0,0.0,0.0,0.0,0.0
43397689,12,1617.0,1604.0,1590.0,1661.0,1500.0,1500.0,900.0,900.0,1500.0,1500.0,1500.0,1500.0,0.0,0.0,0.0,0.0
43497956,12,1645.0,1605.0,1659.0,1567.0,1500.0,1500.0,900.0,900.0,1500.0,1500.0,1500.0,1500.0,0.0,0.0,0.0,0.0
43597641,12,1609.0,1611.0,1639.0,1617.0,1500.0,1500.0,900.0,900.0,1500.0,1500.0,1500.0,1500.0,0.0,0.0,0.0,0.0
43697891,12,1593.0,1641.0,1620.0,1622.0,1500.0,1500.0,900.0,900.0,1500.0,1500.0,1500.0,1500.0,0.0,0.0,0.0,0.0
43797564,12,1634.0,1602.0,1625.0,1615.0,1500.0,1500.0,900.0,900.0,1500.0,1500.0,1500.0,1500.0,0.0,0.0,0.0,0.0
43898395,12,1654.0,1584.0,1577.0,1662.0,1500.0,1500.0,900.0,900.0,1500.0,1500.0,1500.0,1500.0,0.0,0.0,0.0,0.0
43998205,12,1623.0,1614.0,1613.0,1626.0,1500.0,1500.0,900.0,900.0,1500.0,1500.0,1500.0,1500.0,0.0,0.0,0.0,0.0
44097745,12,1633.0,1634.0,1626.0,1583.0,1500.0,1500.0,900.0,900.0,1500.0,1500.0,1500.0,1500.0,0.0,0.0,0.0,0.0
44198016,12,1644.0,1610.0,1665.0,1557.0,1500.0,1500.0,900.0,900.0,1500.0,1500.0,1500.0,1500.0,0.0,0.0,0.0,0.0
44297581,12,1639.0,1605.0,1667.0,1558.0,1500.0,1500.0,900.0,900.0,1500.0,1500.0,1500.0,1500.0,0.0,0.0,0.0,0.0
44394346,12,1617.0,1624.0,1599.0,1626.0,1500.0,1500.0,900.0,900.0,1500.0,1500.0,1500.0,1500.0,0.0,0.0,0.0,0.0
44498273,12,1622.0,1607.0,1591.0,1660.0,1500.0,1500.0,900.0,900.0,1500.0,1500.0,1500.0,1500.0,0.0,0.0,0.0,0.0
44597906,12,1628.0,1621.0,1645.0,1581.0,1500.0,1500.0,900.0,900.0,1500.0,1500.0,1500.0,1500.0,0.0,0.0,0.0,0.0
44697829,12,1620.0,1617.0,1620.0,1605.0,1500.0,1500.0,900.0,900.0,1500.0,1500.0,1500.0,1500.0,0.0,0.0,0.0,0.0
44798592,12,1590.0,1633.0,1618.0,1619.0,1500.0,1500.0,900.0,900.0,1500.0,1500.0,1500.0,1500.0,0.0,0.0,0.0,0.0
44898368,12,1625.0,1603.0,1634.0,1609.0,1500.0,1500.0,900.0,900.0,1500.0,1500.0,1500.0,1500.0,0.0,0.0,0.0,0.0
44998144,12,1590.0,1631.0,1633.0,1621.0,1500.0,1500.0,900.0,900.0,1500.0,1500.0,1500.0,1500.0,0.0,0.0,0.0,0.0
45097851,12,1609.0,1628.0,1626.0,1617.0,1500.0,1500.0,900.0,900.0,1500.0,1500.0,1500.0,1500.0,0.0,0.0,0.0,0.0
45194600,12,1631.0,1625.0,1617.0,1595.0,1500.0,1500.0,900.0,900.0,1500.0,1500.0,1500.0,1500.0,0.0,0.0,0.0,0.0
45298494,12,1630.0,1580.0,1602.0,1667.0,1500.0,1500.0,900.0,900.0,1500.0,1500.0,1500.0,1500.0,0.0,0.0,0.0,0.0
45398309,12,1591.0,1643.0,1580.0,1657.0,1500.0,1500.0,900.0,900.0,1500.0,1500.0,1500.0,1500.0,0.0,0.0,0.0,0.0
45497884,12,1654.0,1601.0,1592.0,1612.0,1500.0,1500.0,900.0,900.0,1500.0,1500.0,1500.0,1500.0,0.0,0.0,0.0,0.0
45598384,12,1601.0,1622.0,1616.0,1630.0,1500.0,1500.0,900.0,900.0,1500.0,1500.0,1500.0,1500.0,0.0,0.0,0.0,0.0
45698071,12,1642.0,1595.0,1612.0,1613.0,1500.0,1500.0,900.0,900.0,1500.0,1500.0,1500.0,1500.0,0.0,0.0,0.0,0.0
45797726,12,1617.0,1611.0,1611.0,1639.0,1500.0,1500.0,900.0,900.0,1500.0,1500.0,1500.0,1500.0,0.0,0.0,0.0,0.0
45898133,12,1609.0,1634.0,1624.0,1617.0,1500.0,1500.0,900.0,900.0,1500.0,1500.0,1500.0,1500.0,0.0,0.0,0.0,0.0
45997886,12,1563.0,1667.0,1628.0,1616.0,1500.0,1500.0,900.0,900.0,1500.0,1500.0,1500.0,1500.0,0.0,0.0,0.0,0.0
46094480,12,1630.0,1612.0,1623.0,1591.0,1500.0,1500.0,900.0,900.0,1500.0,1500.0,1500.0,1500.0,0.0,0.0,0.0,0.0
46198289,12,1597.0,1606.0,1629.0,1637.0,1500.0,1500.0,900.0,900.0,1500.0,1500.0,1500.0,1500.0,0.0,0.0,0.0,0.0
46298066,12,1677.0,1553.0,1628.0,1629.0,1500.0,1500.0,900.0,900.0,1500.0,1500.0,1500.0,1500.0,0.0,0.0,0.0,0.0
46397832,12,1647.0,1587.0,1616.0,1625.0,1500.0,1500.0,900.0,900.0,1500.0,1500.0,1500.0,1500.0,0.0,0.0,0.0,0.0
46498533,12,1659.0,1609.0,1642.0,1553.0,1500.0,1500.0,900.0,900.0,1500.0,1500.0,1500.0,1500.0,0.0,0.0,0.0,0.0
46598438,12,1573.0,1590.0,1612.0,1579.0,1500.0,1500.0,900.0,900.0,1500.0,1500.0,1500.0,1500.0,0.0,0.0,0.0,0.0
46698701,12,1580.0,1587.0,1580.0,1553.0,1500.0,1500.0,900.0,900.0,1500.0,1500.0,1500.0,1500.0,0.0,0.0,0.0,0.0
46797843,12,1613.0,1571.0,1612.0,1530.0,1500.0,1500.0,900.0,900.0,1500.0,1500.0,1500.0,1500.0,0.0,0.0,0.0,0.0
46898079,12,1631.0,1590.0,1625.0,1550.0,1500.0,1500.0,900.0,900.0,1500.0,1500.0,1500.0,1500.0,0.0,0.0,0.0,0.0
46997837,12,1619.0,1595.0,1581.0,1612.0,1500.0,1500.0,900.0,900.0,1500.0,1500.0,1500.0,1500.0,0.0,0.0,0.0,0.0
47098463,12,1651.0,1568.0,1580.0,1599.0,1500.0,1500.0,900.0,900.0,1500.0,1500.0,1500.0,1500.0,0.0,0.0,0.0,0.0
47198383,12,1590.0,1607.0,1594.0,1596.0,1500.0,1500.0,900.0,900.0,1500.0,1500.0,1500.0,1500.0,0.0,0.0,0.0,0.0
47298044,12,1613.0,1586.0,1591.0,1594.0,1500.0,1500.0,900.0,900.0,1500.0,1500.0,1500.0,1500.0,0.0,0.0,0.0,0.0
47398358,12,1581.0,1596.0,1641.0,1565.0,1500.0,1500.0,900.0,900.0,1500.0,1500.0,1500.0,1500.0,0.0,0.0,0.0,0.0
47498007,12,1612.0,1545.0,1557.0,1657.0,1500.0,1500.0,900.0,900.0,1500.0,1500.0,1500.0,1500.0,0.0,0.0,0.0,0.0
47597778,12,1583.0,1596.0,1596.0,1604.0,1500.0,1500.0,900.0,900.0,1500.0,1500.0,1500.0,1500.0,0.0,0.0,0.0,0.0
47698465,12,1597.0,1638.0,1640.0,1512.0,1500.0,1500.0,900.0,900.0,1500.0,1500.0,1500.0,1500.0,0.0,0.0,0.0,0.0
47798256,12,1585.0,1590.0,1608.0,1596.0,1500.0,1500.0,900.0,900.0,1500.0,1500.0,1500.0,1500.0,0.0,0.0,0.0,0.0
47897890,12,1599.0,1604.0,1561.0,1619.0,1500.0,1500.0,900.0,900.0,1500.0,1500.0,1500.0,1500.0,0.0,0.0,0.0,0.0
47998425,12,1630.0,1563.0,1593.0,1592.0,1500.0,1500.0,900.0,900.0,1500.0,1500.0,1500.0,1500.0,0.0,0.0,0.0,0.0
48098150,12,1600.0,1627.0,1560.0,1591.0,1500.0,1500.0,900.0,900.0,1500.0,1500.0,1500.0,1500.0,0.0,0.0,0.0,0.0
48197944,12,1610.0,1549.0,1609.0,1606.0,1500.0,1500.0,900.0,900.0,1500.0,1500.0,1500.0,1500.0,0.0,0.0,0.0,0.0
48298393,12,1623.0,1568.0,1624.0,1568.0,1500.0,1500.0,900.0,900.0,1500.0,1500.0,1500.0,1500.0,0.0,0.0,0.0,0.0
48398000,12,1568.0,1599.0,1605.0,1609.0,1500.0,1500.0,900.0,900.0,1500.0,1500.0,1500.0,1500.0,0.0,0.0,0.0,0.0
48498006,12,1601.0,1584.0,1596.0,1613.0,1500.0,1500.0,900.0,900.0,1500.0,1500.0,1500.0,1500.0,0.0,0.0,0.0,0.0
48597890,12,1590.0,1599.0,1594.0,1600.0,1500.0,1500.0,900.0,900.0,1500.0,1500.0,1500.0,1500.0,0.0,0.0,0.0,0.0
48698303,12,1602.0,1592.0,1567.0,1620.0,1500.0,1500.0,900.0,900.0,1500.0,1500.0,1500.0,1500.0,0.0,0.0,0.0,0.0
48798736,12,1586.0,1584.0,1629.0,1586.0,1500.0,1500.0,900.0,900.0,1500.0,1500.0,1500.0,1500.0,0.0,0.0,0.0,0.0
48898209,12,1596.0,1590.0,1593.0,1601.0,1500.0,1500.0,900.0,900.0,1500.0,1500.0,1500.0,1500.0,0.0,0.0,0.0,0.0
48998083,12,1596.0,1623.0,1575.0,1582.0,1500.0,1500.0,900.0,900.0,1500.0,1500.0,1500.0,1500.0,0.0,0.0,0.0,0.0
49097787,12,1598.0,1603.0,1625.0,1567.0,1500.0,1500.0,900.0,900.0,1500.0,1500.0,1500.0,1500.0,0.0,0.0,0.0,0.0
49198475,12,1582.0,1634.0,1597.0,1584.0,1500.0,1500.0,900.0,900.0,1500.0,1500.0,1500.0,1500.0,0.0,0.0,0.0,0.0
49298313,12,1596.0,1577.0,1577.0,1642.0,1500.0,1500.0,900.0,900.0,1500.0,1500.0,1500.0,1500.0,0.0,0.0,0.0,0.0
49398059,12,1594.0,1581.0,1611.0,1599.0,1500.0,1500.0,900.0,900.0,1500.0,1500.0,1500.0,1500.0,0.0,0.0,0.0,0.0
49498802,12,1609.0,1583.0,1586.0,1606.0,1500.0,1500.0,900.0,900.0,1500.0,1500.0,1500.0,1500.0,0.0,0.0,0.0,0.0
49598156,12,1608.0,1582.0,1578.0,1614.0,1500.0,1500.0,900.0,900.0,1500.0,1500.0,1500.0,1500.0,0.0,0.0,0.0,0.0
49698679,12,1618.0,1615.0,1557.0,1617.0,1500.0,1500.0,900.0,900.0,1500.0,1500.0,1500.0,1500.0,0.0,0.0,0.0,0.0
49798520,12,1597.0,1578.0,1578.0,1654.0,1500.0,1500.0,900.0,900.0,1500.0,1500.0,1500.0,1500.0,0.0,0.0,0.0,0.0
49898364,12,1571.0,1627.0,1588.0,1606.0,1500.0,1500.0,900.0,900.0,1500.0,1500.0,1500.0,1500.0,0.0,0.0,0.0,0.0
49998043,12,1596.0,1599.0,1622.0,1574.0,1500.0,1500.0,900.0,900.0,1500.0,1500.0,1500.0,1500.0,0.0,0.0,0.0,0.0
50098506,12,1625.0,1601.0,1614.0,1556.0,1500.0,1500.0,900.0,900.0,1500.0,1500.0,1500.0,1500.0,0.0,0.0,0.0,0.0
50198223,12,1587.0,1615.0,1576.0,1624.0,1500.0,1500.0,900.0,900.0,1500.0,1500.0,1500.0,1500.0,0.0,0.0,0.0,0.0
50294765,12,1612.0,1608.0,1598.0,1586.0,1500.0,1500.0,900.0,900.0,1500.0,1500.0,1500.0,1500.0,0.0,0.0,0.0,0.0
50398208,12,1576.0,1644.0,1641.0,1547.0,1500.0,1500.0,900.0,900.0,1500.0,1500.0,1500.0,1500.0,0.0,0.0,0.0,0.0
50498481,12,1563.0,1621.0,1620.0,1600.0,1500.0,1500.0,900.0,900.0,1500.0,1500.0,1500.0,1500.0,0.0,0.0,0.0,0.0
50598221,12,1628.0,1591.0,1562.0,1627.0,1500.0,1500.0,900.0,900.0,1500.0,1500.0,1500.0,1500.0,0.0,0.0,0.0,0.0
50697976,12,1593.0,1605.0,1602.0,1613.0,1500.0,1500.0,900.0,900.0,1500.0,1500.0,1500.0,1500.0,0.0,0.0,0.0,0.0
50794598,12,1782.0,1772.0,1452.0,1413.0,1500.0,1500.0,900.0,900.0,1500.0,1500.0,1500.0,1500.0,0.0,0.0,0.0,0.0
50898717,12,1838.0,1665.0,1437.0,1408.0,1500.0,1500.0,900.0,900.0,1500.0,1500.0,1500.0,1500.0,0.0,0.0,0.0,0.0
50998411,12,1490.0,1521.0,1661.0,1644.0,1500.0,1500.0,900.0,900.0,1500.0,1500.0,1500.0,1500.0,0.0,0.0,0.0,0.0
51098958,12,1531.0,1503.0,1717.0,1642.0,1500.0,1500.0,900.0,900.0,1500.0,1500.0,1500.0,1500.0,0.0,0.0,0.0,0.0
51198664,12,1548.0,1518.0,1688.0,1682.0,1500.0,1500.0,900.0,900.0,1500.0,1500.0,1500.0,1500.0,0.0,0.0,0.0,0.0
51298242,12,1584.0,1503.0,1681.0,1649.0,1500.0,1500.0,900.0,900.0,1500.0,1500.0,1500.0,1500.0,0.0,0.0,0.0,0.0
51398084,12,1577.0,1565.0,1644.0,1631.0,1500.0,1500.0,900.0,900.0,1500.0,1500.0,1500.0,1500.0,0.0,0.0,0.0,0.0
51494727,12,1591.0,1585.0,1632.0,1623.0,1500.0,1500.0,900.0,900.0,1500.0,1500.0,1500.0,1500.0,0.0,0.0,0.0,0.0
51598623,12,1617.0,1612.0,1620.0,1610.0,1500.0,1500.0,900.0,900.0,1500.0,1500.0,1500.0,1500.0,0.0,0.0,0.0,0.0
51698275,12,1604.0,1645.0,1638.0,1554.0,1500.0,1500.0,900.0,900.0,1500.0,1500.0,1500.0,1500.0,0.0,0.0,0.0,0.0
51797911,12,1600.0,1599.0,1654.0,1588.0,1500.0,1500.0,900.0,900.0,1500.0,1500.0,1500.0,1500.0,0.0,0.0,0.0,0.0
51898912,12,1618.0,1660.0,1635.0,1542.0,1500.0,1500.0,900.0,900.0,1500.0,1500.0,1500.0,1500.0,0.0,0.0,0.0,0.0
51998181,12,1641.0,1587.0,1611.0,1616.0,1500.0,1500.0,900.0,900.0,1500.0,1500.0,1500.0,1500.0,0.0,0.0,0.0,0.0
52097954,12,1662.0,1584.0,1605.0,1601.0,1500.0,1500.0,900.0,900.0,1500.0,1500.0,1500.0,1500.0,0.0,0.0,0.0,0.0
52194710,12,1653.0,1621.0,1568.0,1617.0,1500.0,1500.0,900.0,900.0,1500.0,1500.0,1500.0,1500.0,0.0,0.0,0.0,0.0
52298433,12,1624.0,1590.0,1604.0,1632.0,1500.0,1500.0,900.0,900.0,1500.0,1500.0,1500.0,1500.0,0.0,0.0,0.0,0.0
52394064,12,1593.0,1648.0,1617.0,1577.0,1500.0,1500.0,900.0,900.0,1500.0,1500.0,1500.0,1500.0,0.0,0.0,0.0,0.0
52498913,12,1595.0,1648.0,1612.0,1607.0,1500.0,1500.0,900.0,900.0,1500.0,1500.0,1500.0,1500.0,0.0,0.0,0.0,0.0
52598636,12,1606.0,1618.0,1637.0,1573.0,1500.0,1500.0,900.0,900.0,1500.0,1500.0,1500.0,1500.0,0.0,0.0,0.0,0.0
52698460,12,1618.0,1586.0,1577.0,1656.0,1500.0,1500.0,900.0,900.0,1500.0,1500.0,1500.0,1500.0,0.0,0.0,0.0,0.0
52798075,12,1609.0,1608.0,1564.0,1645.0,1500.0,1500.0,900.0,900.0,1500.0,1500.0,1500.0,1500.0,0.0,0.0,0.0,0.0
52894760,12,1638.0,1589.0,1595.0,1597.0,1500.0,1500.0,900.0,900.0,1500.0,1500.0,1500.0,1500.0,0.0,0.0,0.0,0.0
52998673,12,1599.0,1619.0,1616.0,1594.0,1500.0,1500.0,900.0,900.0,1500.0,1500.0,1500.0,1500.0,0.0,0.0,0.0,0.0
53098332,12,1636.0,1572.0,1596.0,1622.0,1500.0,1500.0,900.0,900.0,1500.0,1500.0,1500.0,1500.0,0.0,0.0,0.0,0.0
53198470,12,1631.0,1561.0,1617.0,1600.0,1500.0,1500.0,900.0,900.0,1500.0,1500.0,1500.0,1500.0,0.0,0.0,0.0,0.0
53298164,12,1586.0,1614.0,1634.0,1632.0,1500.0,1500.0,900.0,900.0,1500.0,1500.0,1500.0,1500.0,0.0,0.0,0.0,0.0
53398801,12,1574.0,1654.0,1625.0,1616.0,1500.0,1500.0,900.0,900.0,1500.0,1500.0,1500.0,1500.0,0.0,0.0,0.0,0.0
53498375,12,1621.0,1611.0,1596.0,1628.0,1500.0,1500.0,900.0,900.0,1500.0,1500.0,1500.0,1500.0,0.0,0.0,0.0,0.0
53598076,12,1646.0,1564.0,1613.0,1619.0,1500.0,1500.0,900.0,900.0,1500.0,1500.0,1500.0,1500.0,0.0,0.0,0.0,0.0
53698727,12,1656.0,1550.0,1636.0,1598.0,1500.0,1500.0,900.0,900.0,1500.0,1500.0,1500.0,1500.0,0.0,0.0,0.0,0.0
53798521,12,1645.0,1584.0,1633.0,1575.0,1500.0,1500.0,900.0,900.0,1500.0,1500.0,1500.0,1500.0,0.0,0.0,0.0,0.0
53898355,12,1625.0,1581.0,1625.0,1604.0,1500.0,1500.0,900.0,900.0,1500.0,1500.0,1500.0,1500.0,0.0,0.0,0.0,0.0
53998072,12,1566.0,1639.0,1612.0,1620.0,1500.0,1500.0,900.0,900.0,1500.0,1500.0,1500.0,1500.0,0.0,0.0,0.0,0.0
54098779,12,1607.0,1620.0,1631.0,1574.0,1500.0,1500.0,900.0,900.0,1500.0,1500.0,1500.0,1500.0,0.0,0.0,0.0,0.0
54198221,12,1652.0,1587.0,1620.0,1573.0,1500.0,1500.0,900.0,900.0,1500.0,1500.0,1500.0,1500.0,0.0,0.0,0.0,0.0
54294960,12,1639.0,1583.0,1561.0,1634.0,1500.0,1500.0,900.0,900.0,1500.0,1500.0,1500.0,1500.0,0.0,0.0,0.0,0.0
54398655,12,1594.0,1610.0,1582.0,1645.0,1500.0,1500.0,900.0,900.0,1500.0,1500.0,1500.0,1500.0,0.0,0.0,0.0,0.0
54498375,12,1617.0,1576.0,1624.0,1613.0,1500.0,1500.0,900.0,900.0,1500.0,1500.0,1500.0,1500.0,0.0,0.0,0.0,0.0
54598143,12,1623.0,1595.0,1599.0,1611.0,1500.0,1500.0,900.0,900.0,1500.0,1500.0,1500.0,1500.0,0.0,0.0,0.0,0.0
54698657,12,1561.0,1643.0,1616.0,1607.0,1500.0,1500.0,900.0,900.0,1500.0,1500.0,1500.0,1500.0,0.0,0.0,0.0,0.0
54798328,12,1676.0,1533.0,1597.0,1618.0,1500.0,1500.0,900.0,900.0,1500.0,1500.0,1500.0,1500.0,0.0,0.0,0.0,0.0
54898042,12,1630.0,1566.0,1624.0,1595.0,1500.0,1500.0,900.0,900.0,1500.0,1500.0,1500.0,1500.0,0.0,0.0,0.0,0.0
54998461,12,1591.0,1617.0,1628.0,1580.0,1500.0,1500.0,900.0,900.0,1500.0,1500.0,1500.0,1500.0,0.0,0.0,0.0,0.0
55098257,12,1610.0,1618.0,1632.0,1569.0,1500.0,1500.0,900.0,900.0,1500.0,1500.0,1500.0,1500.0,0.0,0.0,0.0,0.0
55194829,12,1575.0,1636.0,1587.0,1634.0,1500.0,1500.0,900.0,900.0,1500.0,1500.0,1500.0,1500.0,0.0,0.0,0.0,0.0
55298558,12,1622.0,1634.0,1570.0,1603.0,1500.0,1500.0,900.0,900.0,1500.0,1500.0,1500.0,1500.0,0.0,0.0,0.0,0.0
55398406,12,1608.0,1647.0,1591.0,1595.0,1500.0,1500.0,900.0,900.0,1500.0,1500.0,1500.0,1500.0,0.0,0.0,0.0,0.0
55498136,12,1596.0,1623.0,1647.0,1570.0,1500.0,1500.0,900.0,900.0,1500.0,1500.0,1500.0,1500.0,0.0,0.0,0.0,0.0
55598390,12,1617.0,1603.0,1599.0,1631.0,1500.0,1500.0,900.0,900.0,1500.0,1500.0,1500.0,1500.0,0.0,0.0,0.0,0.0
55698120,12,1621.0,1567.0,1630.0,1635.0,1500.0,1500.0,900.0,900.0,1500.0,1500.0,1500.0,1500.0,0.0,0.0,0.0,0.0
55798740,12,1576.0,1616.0,1683.0,1573.0,1500.0,1500.0,900.0,900.0,1500.0,1500.0,1500.0,1500.0,0.0,0.0,0.0,0.0
55894113,12,1560.0,1656.0,1607.0,1602.0,1500.0,1500.0,900.0,900.0,1500.0,1500.0,1500.0,1500.0,0.0,0.0,0.0,0.0
55998853,12,1609.0,1623.0,1596.0,1591.0,1500.0,1500.0,900.0,900.0,1500.0,1500.0,1500.0,1500.0,0.0,0.0,0.0,0.0
56098585,12,1607.0,1596.0,1613.0,1615.0,1500.0,1500.0,900.0,900.0,1500.0,1500.0,1500.0,1500.0,0.0,0.0,0.0,0.0
56198241,12,1624.0,1575.0,1594.0,1629.0,1500.0,1500.0,900.0,900.0,1500.0,1500.0,1500.0,1500.0,0.0,0.0,0.0,0.0
56299041,12,1595.0,1614.0,1570.0,1634.0,1500.0,1500.0,900.0,900.0,1500.0,1500.0,1500.0,1500.0,0.0,0.0,0.0,0.0
56394726,12,1541.0,1664.0,1592.0,1624.0,1500.0,1500.0,900.0,900.0,1500.0,1500.0,1500.0,1500.0,0.0,0.0,0.0,0.0
56498745,12,1561.0,1647.0,1616.0,1615.0,1500.0,1500.0,900.0,900.0,1500.0,1500.0,1500.0,1500.0,0.0,0.0,0.0,0.0
56594518,12,1624.0,1624.0,1613.0,1579.0,1500.0,1500.0,900.0,900.0,1500.0,1500.0,1500.0,1500.0,0.0,0.0,0.0,0.0
56698169,12,1598.0,1643.0,1640.0,1556.0,1500.0,1500.0,900.0,900.0,1500.0,1500.0,1500.0,1500.0,0.0,0.0,0.0,0.0
56798056,12,1653.0,1578.0,1578.0,1632.0,1500.0,1500.0,900.0,900.0,1500.0,1500.0,1500.0,1500.0,0.0,0.0,0.0,0.0
56898786,12,1612.0,1623.0,1563.0,1639.0,1500.0,1500.0,900.0,900.0,1500.0,1500.0,1500.0,1500.0,0.0,0.0,0.0,0.0
56998524,12,1599.0,1615.0,1561.0,1650.0,1500.0,1500.0,900.0,900.0,1500.0,1500.0,1500.0,1500.0,0.0,0.0,0.0,0.0
57098347,12,1573.0,1657.0,1615.0,1587.0,1500.0,1500.0,900.0,900.0,1500.0,1500.0,1500.0,1500.0,0.0,0.0,0.0,0.0
57198616,12,1620.0,1601.0,1617.0,1603.0,1500.0,1500.0,900.0,900.0,1500.0,1500.0,1500.0,1500.0,0.0,0.0,0.0,0.0
57298894,12,1583.0,1622.0,1628.0,1599.0,1500.0,1500.0,900.0,900.0,1500.0,1500.0,1500.0,1500.0,0.0,0.0,0.0,0.0
57398154,12,1604.0,1602.0,1597.0,1627.0,1500.0,1500.0,900.0,900.0,1500.0,1500.0,1500.0,1500.0,0.0,0.0,0.0,0.0
57498811,12,1617.0,1601.0,1606.0,1611.0,1500.0,1500.0,900.0,900.0,1500.0,1500.0,1500.0,1500.0,0.0,0.0,0.0,0.0
57598652,12,1612.0,1618.0,1608.0,1596.0,1500.0,1500.0,900.0,900.0,1500.0,1500.0,1500.0,1500.0,0.0,0.0,0.0,0.0
57698397,12,1603.0,1600.0,1604.0,1625.0,1500.0,1500.0,900.0,900.0,1500.0,1500.0,1500.0,1500.0,0.0,0.0,0.0,0.0
57794347,12,1573.0,1646.0,1652.0,1546.0,1500.0,1500.0,900.0,900.0,1500.0,1500.0,1500.0,1500.0,0.0,0.0,0.0,0.0
57898245,12,1611.0,1592.0,1624.0,1618.0,1500.0,1500.0,900.0,900.0,1500.0,1500.0,1500.0,1500.0,0.0,0.0,0.0,0.0
57999260,12,1595.0,1601.0,1629.0,1608.0,1500.0,1500.0,900.0,900.0,1500.0,1500.0,1500.0,1500.0,0.0,0.0,0.0,0.0
58098685,12,1628.0,1599.0,1604.0,1595.0,1500.0,1500.0,900.0,900.0,1500.0,1500.0,1500.0,1500.0,0.0,0.0,0.0,0.0
58198401,12,1620.0,1605.0,1598.0,1603.0,1500.0,1500.0,900.0,900.0,1500.0,1500.0,1500.0,1500.0,0.0,0.0,0.0,0.0
58298496,12,1608.0,1581.0,1602.0,1627.0,1500.0,1500.0,900.0,900.0,1500.0,1500.0,1500.0,1500.0,0.0,0.0,0.0,0.0
58398799,12,1610.0,1600.0,1576.0,1621.0,1500.0,1500.0,900.0,900.0,1500.0,1500.0,1500.0,1500.0,0.0,0.0,0.0,0.0
58498516,12,1605.0,1599.0,1587.0,1637.0,1500.0,1500.0,900.0,900.0,1500.0,1500.0,1500.0,1500.0,0.0,0.0,0.0,0.0
58598701,12,1591.0,1590.0,1652.0,1594.0,1500.0,1500.0,900.0,900.0,1500.0,1500.0,1500.0,1500.0,0.0,0.0,0.0,0.0
58698697,12,1622.0,1591.0,1596.0,1617.0,1500.0,1500.0,900.0,900.0,1500.0,1500.0,1500.0,1500.0,0.0,0.0,0.0,0.0
58798698,12,1614.0,1605.0,1557.0,1653.0,1500.0,1500.0,900.0,900.0,1500.0,1500.0,1500.0,1500.0,0.0,0.0,0.0,0.0
58898578,12,1581.0,1609.0,1623.0,1611.0,1500.0,1500.0,900.0,900.0,1500.0,1500.0,1500.0,1500.0,0.0,0.0,0.0,0.0
58998733,12,1582.0,1608.0,1629.0,1618.0,1500.0,1500.0,900.0,900.0,1500.0,1500.0,1500.0,1500.0,0.0,0.0,0.0,0.0
59099106,12,1600.0,1584.0,1632.0,1623.0,1500.0,1500.0,900.0,900.0,1500.0,1500.0,1500.0,1500.0,0.0,0.0,0.0,0.0
59194714,12,1572.0,1617.0,1598.0,1640.0,1500.0,1500.0,900.0,900.0,1500.0,1500.0,1500.0,1500.0,0.0,0.0,0.0,0.0
59298571,12,1589.0,1581.0,1602.0,1653.0,1500.0,1500.0,900.0,900.0,1500.0,1500.0,1500.0,1500.0,0.0,0.0,0.0,0.0
59394263,12,1607.0,1561.0,1612.0,1638.0,1500.0,1500.0,900.0,900.0,1500.0,1500.0,1500.0,1500.0,0.0,0.0,0.0,0.0
59498880,12,1603.0,1708.0,1520.0,1582.0,1500.0,1500.0,900.0,900.0,1500.0,1500.0,1500.0,1500.0,0.0,0.0,0.0,0.0
59598251,12,1801.0,1825.0,1327.0,1387.0,1500.0,1500.0,900.0,900.0,1500.0,1500.0,1500.0,1500.0,0.0,0.0,0.0,0.0
59694956,12,1580.0,1522.0,1554.0,1563.0,1500.0,1500.0,900.0,900.0,1500.0,1500.0,1500.0,1500.0,0.0,0.0,0.0,0.0
59798594,12,1514.0,1511.0,1652.0,1666.0,1500.0,1500.0,900.0,900.0,1500.0,1500.0,1500.0,1500.0,0.0,0.0,0.0,0.0
59894917,12,1546.0,1509.0,1723.0,1626.0,1500.0,1500.0,900.0,900.0,1500.0,1500.0,1500.0,1500.0,0.0,0.0,0.0,0.0
59998593,12,1538.0,1583.0,1628.0,1653.0,1500.0,1500.0,900.0,900.0,1500.0,1500.0,1500.0,1500.0,0.0,0.0,0.0,0.0
60095168,12,1528.0,1570.0,1637.0,1671.0,1500.0,1500.0,900.0,900.0,1500.0,1500.0,1500.0,1500.0,0.0,0.0,0.0,0.0
60198481,12,1624.0,1548.0,1599.0,1663.0,1500.0,1500.0,900.0,900.0,1500.0,1500.0,1500.0,1500.0,0.0,0.0,0.0,0.0
60298502,12,1588.0,1592.0,1616.0,1645.0,1500.0,1500.0,900.0,900.0,1500.0,1500.0,1500.0,1500.0,0.0,0.0,0.0,0.0
60398347,12,1612.0,1603.0,1640.0,1588.0,1500.0,1500.0,900.0,900.0,1500.0,1500.0,1500.0,1500.0,0.0,0.0,0.0,0.0
60498882,12,1615.0,1590.0,1641.0,1591.0,1500.0,1500.0,900.0,900.0,1500.0,1500.0,1500.0,1500.0,0.0,0.0,0.0,0.0
60594554,12,1597.0,1623.0,1584.0,1622.0,1500.0,1500.0,900.0,900.0,1500.0,1500.0,1500.0,1500.0,0.0,0.0,0.0,0.0
60698353,12,1589.0,1630.0,1572.0,1626.0,1500.0,1500.0,900.0,900.0,1500.0,1500.0,1500.0,1500.0,0.0,0.0,0.0,0.0
60798772,12,1604.0,1633.0,1630.0,1566.0,1500.0,1500.0,900.0,900.0,1500.0,1500.0,1500.0,1500.0,0.0,0.0,0.0,0.0
60898509,12,1629.0,1605.0,1596.0,1602.0,1500.0,1500.0,900.0,900.0,1500.0,1500.0,1500.0,1500.0,0.0,0.0,0.0,0.0
60999237,12,1624.0,1604.0,1586.0,1619.0,1500.0,1500.0,900.0,900.0,1500.0,1500.0,1500.0,1500.0,0.0,0.0,0.0,0.0
61094911,12,1618.0,1601.0,1569.0,1653.0,1500.0,1500.0,900.0,900.0,1500.0,1500.0,1500.0,1500.0,0.0,0.0,0.0,0.0
61198613,12,1604.0,1639.0,1564.0,1633.0,1500.0,1500.0,900.0,900.0,1500.0,1500.0,1500.0,1500.0,0.0,0.0,0.0,0.0
61298339,12,1579.0,1641.0,1596.0,1608.0,1500.0,1500.0,900.0,900.0,1500.0,1500.0,1500.0,1500.0,0.0,0.0,0.0,0.0
61399154,12,1614.0,1579.0,1617.0,1614.0,1500.0,1500.0,900.0,900.0,1500.0,1500.0,1500.0,1500.0,0.0,0.0,0.0,0.0
61498962,12,1629.0,1578.0,1634.0,1593.0,1500.0,1500.0,900.0,900.0,1500.0,1500.0,1500.0,1500.0,0.0,0.0,0.0,0.0
61598681,12,1627.0,1605.0,1588.0,1625.0,1500.0,1500.0,900.0,900.0,1500.0,1500.0,1500.0,1500.0,0.0,0.0,0.0,0.0
61698642,12,1607.0,1609.0,1609.0,1611.0,1500.0,1500.0,900.0,900.0,1500.0,1500.0,1500.0,1500.0,0.0,0.0,0.0,0.0
61798548,12,1631.0,1577.0,1635.0,1589.0,1500.0,1500.0,900.0,900.0,1500.0,1500.0,1500.0,1500.0,0.0,0.0,0.0,0.0
61898351,12,1599.0,1621.0,1623.0,1595.0,1500.0,1500.0,900.0,900.0,1500.0,1500.0,1500.0,1500.0,0.0,0.0,0.0,0.0
61995038,12,1581.0,1649.0,1587.0,1609.0,1500.0,1500.0,900.0,900.0,1500.0,1500.0,1500.0,1500.0,0.0,0.0,0.0,0.0
62098544,12,1577.0,1645.0,1610.0,1595.0,1500.0,1500.0,900.0,900.0,1500.0,1500.0,1500.0,1500.0,0.0,0.0,0.0,0.0
62199280,12,1587.0,1619.0,1612.0,1604.0,1500.0,1500.0,900.0,900.0,1500.0,1500.0,1500.0,1500.0,0.0,0.0,0.0,0.0
62298728,12,1610.0,1589.0,1615.0,1610.0,1500.0,1500.0,900.0,900.0,1500.0,1500.0,1500.0,1500.0,0.0,0.0,0.0,0.0
62399169,12,1619.0,1576.0,1594.0,1636.0,1500.0,1500.0,900.0,900.0,1500.0,1500.0,1500.0,1500.0,0.0,0.0,0.0,0.0
62498996,12,1635.0,1589.0,1606.0,1607.0,1500.0,1500.0,900.0,900.0,1500.0,1500.0,1500.0,1500.0,0.0,0.0,0.0,0.0
62598699,12,1612.0,1593.0,1618.0,1630.0,1500.0,1500.0,900.0,900.0,1500.0,1500.0,1500.0,1500.0,0.0,0.0,0.0,0.0
62698398,12,1594.0,1631.0,1596.0,1629.0,1500.0,1500.0,900.0,900.0,1500.0,1500.0,1500.0,1500.0,0.0,0.0,0.0,0.0
62799230,12,1569.0,1655.0,1567.0,1640.0,1500.0,1500.0,900.0,900.0,1500.0,1500.0,1500.0,1500.0,0.0,0.0,0.0,0.0
62894956,12,1593.0,1610.0,1617.0,1603.0,1500.0,1500.0,900.0,900.0,1500.0,1500.0,1500.0,1500.0,0.0,0.0,0.0,0.0
62998571,12,1635.0,1595.0,1576.0,1634.0,1500.0,1500.0,900.0,900.0,1500.0,1500.0,1500.0,1500.0,0.0,0.0,0.0,0.0
63098285,12,1598.0,1608.0,1648.0,1592.0,1500.0,1500.0,900.0,900.0,1500.0,1500.0,1500.0,1500.0,0.0,0.0,0.0,0.0
63195190,12,1639.0,1560.0,1679.0,1561.0,1500.0,1500.0,900.0,900.0,1500.0,1500.0,1500.0,1500.0,0.0,0.0,0.0,0.0
